,03,06,225,,04,17,156,,08,63,188,29*76

$GPGSV,4,2,13,10,40,060,33,11,56,282,26,14,28,129,13,18,12,056,*7F

$GPGSV,4,3,13,22,29,222,31,24,04,033,06,27,31,156,22,28,27,309,29*78

$GPGSV,4,4,13,32,37,111,21*4C

$GPGLL,5327.66538,N,00957.80669,E,122304.00,A,A*68

$GPGST,122304.00,37,,,,4.3,3.5,9.6*5B

$GPZDA,122304.00,18,09,2017,00,00*64

$GPGBS,122304.00,4.3,3.5,9.6,,,,*49

$GPTXT,01,01,01,NMEA unknown msg*58

$GPTXT,01,01,01,NMEA unknown msg*58

$GPTXT,01,01,01,NMEA unknown msg*58

$GPTXT,01,01,01,NMEA unknown msg*58

$GPTXT,01,01,01,NMEA unknown msg*58

$GPTXT,01,01,01,NMEA unknown msg*58

$GPTXT,01,01,01,NMEA unknown msg*58

$GPTXT,01,01,01,NMEA unknown msg*58

$GPTXT,01,01,01,NMEA unknown msg*58

$GPTXT,01,01,01,NMEA unknown msg*58

$GPTXT,01,01,01,NMEA unknown msg*58

$GPTXT,01,01,01,NMEA unknown msg*58

$GPTXT,01,01,01,NMEA unknown msg*58

$GPTXT,01,01,01,NMEA unknown msg*58

$GPRMC,122305.00,A,5327.66539,N,00957.80691,E,0.880,,180917,,,A*70

$GPVTG,,T,,M,0.880,N,1.629,K,A*2F

$GPGGA,122305.00,5327.66539,N,00957.80691,E,1,08,1.04,10.9,M,45.2,M,,*6C

$GPGSA,A,3,08,11,01,10,32,14,22,28,,,,,2.55,1.04,2.33*01

$GPGSV,4,1,13,01,42,278,35,03,06,225,,04,17,156,08,08,63,188,28*7C

$GPGSV,4,2,13,10,40,060,32,11,56,282,31,14,28,129,29,18,12,056,08*79

$GPGSV,4,3,13,22,29,222,24,24,04,033,06,27,31,156,21,28,27,309,28*7E

$GPGSV,4,4,13,32,37,111,34*48

$GPGLL,5327.66539,N,00957.80691,E,122305.00,A,A*6F

$GPGST,122305.00,27,,,,4.3,3.4,9.8*54

$GPZDA,122305.00,18,09,2017,00,00*65

$GPGBS,122305.00,4.3,3.4,9.8,,,,*47

$GPTXT,01,01,01,NMEA unknown msg*58

$GPTXT,01,01,01,NMEA unknown msg*58

$GPTXT,01,01,01,NMEA unknown msg*58

$GPTXT,01,01,01,NMEA unknown msg*58

$GPTXT,01,01,01,NMEA unknown msg*58

$GPTXT,01,01,01,NMEA unknown msg*58

$GPTXT,01,01,01,NMEA unknown msg*58

$GPTXT,01,01,01,NMEA unknown msg*58

$GPTXT,01,01,01,NMEA unknown msg*58

$GPTXT,01,01,01,NMEA unknown msg*58

$GPTXT,01,01,01,NMEA unknown msg*58

$GPTXT,01,01,01,NMEA unknown msg*58

$GPTXT,01,01,01,NMEA unknown msg*58

$GPTXT,01,01,01,NMEA unknown msg*58

$GPTXT,01,01,01,NMEA unknown msg*58

$GPTXT,01,01,01,NMEA unknown msg*58

$GPTXT,01,01,01,NMEA unknown msg*58

$GPTXT,01,01,01,NMEA unknown msg*58

$GPTXT,01,01,01,NMEA unknown msg*58

$GPTXT,01,01,01,NMEA unknown msg*58

$GPRMC,122306.00,A,5327.66510,N,00957.80765,E,1.589,190.27,180917,,,A*64

$GPVTG,190.27,T,,M,1.589,N,2.943,K,A*39

$GPGGA,122306.00,5327.66510,N,00957.80765,E,1,09,0.97,10.8,M,45.2,M,,*65

$GPGSA,A,3,08,11,01,10,32,27,14,22,28,,,,2.47,0.97,2.27*09

$GPGSV,4,1,13,01,42,278,32,03,06,225,,04,17,156,18,08,63,188,37*74

$GPGSV,4,2,13,10,40,060,28,11,56,282,25,14,28,129,29,18,12,056,09*76

$GPGSV,4,3,13,22,29,222,24,24,04,033,06,27,31,156,28,28,27,309,31*7F

$GPGSV,4,4,13,32,37,111,35*49

$GPGLL,5327.66510,N,00957.80765,E,122306.00,A,A*6D

$GPGST,122306.00,27,,,,4.3,3.3,9.6*5E

$GPZDA,122306.00,18,09,2017,00,00*66

$GPGBS,122306.00,4.3,3.3,9.6,,,,*4D

$GPTXT,01,01,01,NMEA unknown msg*58

$GPTXT,01,01,01,NMEA unknown msg*58

$GPTXT,01,01,01,NMEA unknown msg*58

$GPTXT,01,01,01,NMEA unknown msg*58

$GPTXT,01,01,01,NMEA unknown msg*58

$GPTXT,01,01,01,NMEA unknown msg*58

$GPTXT,01,01,01,NMEA unknown msg*58

$GPTXT,01,01,01,NMEA unknown msg*58

$GPTXT,01,01,01,NMEA unknown msg*58

$GPTXT,01,01,01,NMEA unknown msg*58

$GPTXT,01,01,01,NMEA unknown msg*58

$GPTXT,01,01,01,NMEA unknown msg*58

$GPTXT,01,01,01,NMEA unknown msg*58

$GPTXT,01,01,01,NMEA unknown msg*58

$GPTXT,01,01,01,NMEA unknown msg*58

$GPTXT,01,01,01,NMEA unknown msg*58

$GPTXT,01,01,01,NMEA unknown msg*58

$GPTXT,01,01,01,NMEA unknown msg*58

$GPTXT,01,01,01,NMEA unknown msg*58

$GPTXT,01,01,01,NMEA unknown msg*58

$GPTXT,01,01,01,NMEA unknown msg*58

$GPTXT,01,01,01,NMEA unknown msg*58

$GPRMC,122307.00,A,5327.66487,N,00957.80848,E,1.889,130.95,180917,,,A*64

$GPVTG,130.95,T,,M,1.889,N,3.498,K,A*3D

$GPGGA,122307.00,5327.66487,N,00957.80848,E,1,09,0.97,10.6,M,45.2,M,,*65

$GPGSA,A,3,08,11,01,10,32,27,14,22,28,,,,2.47,0.97,2.27*09

$GPGSV,4,1,13,01,42,278,32,03,06,225,,04,17,156,20,08,63,188,36*7E

$GPGSV,4,2,13,10,40,060,31,11,56,282,32,14,28,129,31,18,12,056,12*7B

$GPGSV,4,3,13,22,29,222,32,24,04,033,06,27,31,156,27,28,27,309,23*74

$GPGSV,4,4,13,32,37,111,30*4C

$GPGLL,5327.66487,N,00957.80848,E,122307.00,A,A*63

$GPGST,122307.00,25,,,,4.2,3.2,9.5*5E

$GPZDA,122307.00,18,09,2017,00,00*67

$GPGBS,122307.00,4.2,3.2,9.5,,,,*4F

$GPTXT,01,01,01,NMEA unknown msg*58

$GPTXT,01,01,01,NMEA unknown msg*58

$GPTXT,01,01,01,NMEA unknown msg*58

$GPTXT,01,01,01,NMEA unknown msg*58

$GPTXT,01,01,01,NMEA unknown msg*58

$GPTXT,01,01,01,NMEA unknown msg*58

$GPTXT,01,01,01,NMEA unknown msg*58

$GPTXT,01,01,01,NMEA unknown msg*58

$GPTXT,01,01,01,NMEA unknown msg*58

$GPTXT,01,01,01,NMEA unknown msg*58

$GPTXT,01,01,01,NMEA unknown msg*58

$GPTXT,01,01,01,NMEA unknown msg*58

$GPTXT,01,01,01,NMEA unknown msg*58

$GPTXT,01,01,01,NMEA unknown msg*58

$GPTXT,01,01,01,NMEA unknown msg*58

$GPTXT,01,01,01,NMEA unknown msg*58

$GPTXT,01,01,01,NMEA unknown msg*58

$GPTXT,01,01,01,NMEA unknown msg*58

$GPTXT,01,01,01,NMEA unknown msg*58

$GPTXT,01,01,01,NMEA unknown msg*58

$GPTXT,01,01,01,NMEA unknown msg*58

$GPRMC,122308.00,A,5327.66505,N,00957.80929,E,2.191,97.77,180917,,,A*55

$GPVTG,97.77,T,,M,2.191,N,4.057,K,A*0E

$GPGGA,122308.00,5327.66505,N,00957.80929,E,1,09,0.97,10.7,M,45.2,M,,*66

$GPGSA,A,3,08,11,01,10,32,27,14,22,28,,,,2.47,0.97,2.27*09

$GPGSV,4,1,13,01,42,278,30,03,06,225,,04,17,156,21,08,62,187,37*72

$GPGSV,4,2,13,10,40,060,33,11,56,282,31,14,28,129,30,18,12,056,09*71

$GPGSV,4,3,13,22,29,222,31,24,04,033,08,27,31,156,26,28,27,309,22*79

$GPGSV,4,4,13,32,37,111,29*44

$GPGLL,5327.66505,N,00957.80929,E,122308.00,A,A*61

$GPGST,122308.00,27,,,,4.1,3.2,9.3*56

$GPZDA,122308.00,18,09,2017,00,00*68

$GPGBS,122308.00,4.1,3.2,9.3,,,,*45

$GPTXT,01,01,01,NMEA unknown msg*58

$GPTXT,01,01,01,NMEA unknown msg*58

$GPTXT,01,01,01,NMEA unknown msg*58

$GPTXT,01,01,01,NMEA unknown msg*58

$GPTXT,01,01,01,NMEA unknown msg*58

$GPTXT,01,01,01,NMEA unknown msg*58

$GPTXT,01,01,01,NMEA unknown msg*58

$GPTXT,01,01,01,NMEA unknown msg*58

$GPTXT,01,01,01,NMEA unknown msg*58

$GPTXT,01,01,01,NMEA unknown msg*58

$GPTXT,01,01,01,NMEA unknown msg*58

$GPTXT,01,01,01,NMEA unknown msg*58

$GPTXT,01,01,01,NMEA unknown msg*58

$GPTXT,01,01,01,NMEA unknown msg*58

$GPTXT,01,01,01,NMEA unknown msg*58

$GPTXT,01,01,01,NMEA unknown msg*58

$GPTXT,01,01,01,NMEA unknown msg*58

$GPTXT,01,01,01,NMEA unknown msg*58

$GPRMC,122309.00,A,5327.66525,N,00957.81033,E,2.079,91.99,180917,,,A*54

$GPVTG,91.99,T,,M,2.079,N,3.849,K,A*0F

$GPGGA,122309.00,5327.66525,N,00957.81033,E,1,09,0.97,10.7,M,45.2,M,,*66

$GPGSA,A,3,08,11,01,10,32,27,14,22,28,,,,2.47,0.97,2.27*09

$GPGSV,4,1,13,01,42,278,30,03,06,225,,04,17,156,19,08,62,187,36*78

$GPGSV,4,2,13,10,40,060,33,11,56,282,31,14,28,129,28,18,12,056,08*79

$GPGSV,4,3,13,22,29,222,34,24,04,033,08,27,31,156,25,28,27,309,20*7D

$GPGSV,4,4,13,32,37,111,28*45

$GPGLL,5327.66525,N,00957.81033,E,122309.00,A,A*61

$GPGST,122309.00,35,,,,4.1,3.1,9.2*56

$GPZDA,122309.00,18,09,2017,00,00*69

$GPGBS,122309.00,4.1,3.1,9.2,,,,*46

$GPTXT,01,01,01,NMEA unknown msg*58

$GPTXT,01,01,01,NMEA unknown msg*58

$GPTXT,01,01,01,NMEA unknown msg*58

$GPTXT,01,01,01,NMEA unknown msg*58

$GPTXT,01,01,01,NMEA unknown msg*58

$GPTXT,01,01,01,NMEA unknown msg*58

$GPTXT,01,01,01,NMEA unknown msg*58

$GPTXT,01,01,01,NMEA unknown msg*58

$GPTXT,01,01,01,NMEA unknown msg*58

$GPTXT,01,01,01,NMEA unknown msg*58

$GPTXT,01,01,01,NMEA unknown msg*58

$GPTXT,01,01,01,NMEA unknown msg*58

$GPTXT,01,01,01,NMEA unknown msg*58

$GPTXT,01,01,01,NMEA unknown msg*58

$GPTXT,01,01,01,NMEA unknown msg*58

$GPTXT,01,01,01,NMEA unknown msg*58

$GPTXT,01,01,01,NMEA unknown msg*58

$GPTXT,01,01,01,NMEA unknown msg*58

$GPTXT,01,01,01,NMEA unknown msg*58

$GPTXT,01,01,01,NMEA unknown msg*58

$GPTXT,01,01,01,NMEA unknown msg*58

$GPTXT,01,01,01,NMEA unknown msg*58

$GPTXT,01,01,01,NMEA unknown msg*58

$GPTXT,01,01,01,NMEA unknown msg*58

$GPRMC,122310.00,A,5327.66520,N,00957.81134,E,2.350,90.66,180917,,,A*56

$GPVTG,90.66,T,,M,2.350,N,4.352,K,A*00

$GPGGA,122310.00,5327.66520,N,00957.81134,E,1,09,0.97,10.6,M,45.2,M,,*6C

$GPGSA,A,3,08,11,01,10,32,27,14,22,28,,,,2.47,0.97,2.27*09

$GPGSV,4,1,13,01,42,278,30,03,06,225,,04,17,156,17,08,62,187,32*72

$GPGSV,4,2,13,10,39,060,32,11,56,282,24,14,28,129,26,18,12,056,08*7C

$GPGSV,4,3,13,22,29,222,33,24,04,033,,27,31,156,23,28,27,309,19*7E

$GPGSV,4,4,13,32,37,111,28*45

$GPTXT,01,01,01,NMEA unknown msg*58

$GPGLL,5327.66520,N,00957.81134,E,122310.00,A,A*6A

$GPGST,122310.00,36,,,,4.1,3.1,9.3*5C

$GPZDA,122310.00,18,09,2017,00,00*61

$GPGBS,122310.00,4.1,3.1,9.3,,,,*4F

$GPTXT,01,01,01,NMEA unknown msg*58

$GPTXT,01,01,01,NMEA unknown msg*58

$GPTXT,01,01,01,NMEA unknown msg*58

$GPTXT,01,01,01,NMEA unknown msg*58

$GPTXT,01,01,01,NMEA unknown msg*58

$GPTXT,01,01,01,NMEA unknown msg*58

$GPTXT,01,01,01,NMEA unknown msg*58

$GPTXT,01,01,01,NMEA unknown msg*58

$GPTXT,01,01,01,NMEA unknown msg*58

$GPTXT,01,01,01,NMEA unknown msg*58

$GPTXT,01,01,01,NMEA unknown msg*58

$GPTXT,01,01,01,NMEA unknown msg*58

$GPTXT,01,01,01,NMEA unknown msg*58

$GPTXT,01,01,01,NMEA unknown msg*58

$GPTXT,01,01,01,NMEA unknown msg*58

$GPTXT,01,01,01,NMEA unknown msg*58

$GPTXT,01,01,01,NMEA unknown msg*58

$GPTXT,01,01,01,NMEA unknown msg*58

$GPTXT,01,01,01,NMEA unknown msg*58

$GPRMC,122311.00,A,5327.66522,N,00957.81238,E,2.186,87.20,180917,,,A*57

$GPVTG,87.20,T,,M,2.186,N,4.048,K,A*05

$GPGGA,122311.00,5327.66522,N,00957.81238,E,1,09,0.97,10.6,M,45.2,M,,*60

$GPGSA,A,3,08,11,01,10,32,27,14,22,28,,,,2.47,0.97,2.27*09

$GPGSV,4,1,13,01,42,278,29,03,06,225,,04,17,156,14,08,62,187,34*7F

$GPGSV,4,2,13,10,39,060,32,11,56,282,28,14,28,129,25,18,12,056,08*73

$GPGSV,4,3,13,22,29,222,32,24,04,033,,27,31,156,21,28,27,309,19*7D

$GPGSV,4,4,13,32,37,111,28*45

$GPGLL,5327.66522,N,00957.81238,E,122311.00,A,A*66

$GPGST,122311.00,34,,,,4.0,3.1,9.3*5E

$GPZDA,122311.00,18,09,2017,00,00*60

$GPGBS,122311.00,4.0,3.1,9.3,,,,*4F

$GPTXT,01,01,01,NMEA unknown msg*58

$GPTXT,01,01,01,NMEA unknown msg*58

$GPTXT,01,01,00,txbuf alloc*7F

$GPTXT,01,01,01,NMEA unknown msg*58

$GPTXT,01,01,01,NMEA unknown msg*58

$GPTXT,01,01,01,NMEA unknown msg*58

$GPTXT,01,01,01,NMEA unknown msg*58

$GPTXT,01,01,01,NMEA unknown msg*58

$GPTXT,01,01,01,NMEA unknown msg*58

$GPTXT,01,01,01,NMEA unknown msg*58

$GPTXT,01,01,01,NMEA unknown msg*58

$GPTXT,01,01,01,NMEA unknown msg*58

$GPTXT,01,01,01,NMEA unknown msg*58

$GPTXT,01,01,01,NMEA unknown msg*58

$GPTXT,01,01,01,NMEA unknown msg*58

$GPRMC,122312.00,A,5327.66540,N,00957.81340,E,2.358,77.98,180917,,,A*53

$GPVTG,77.98,T,,M,2.358,N,4.366,K,A*07

$GPGGA,122312.00,5327.66540,N,00957.81340,E,1,09,0.97,10.7,M,45.2,M,,*68

$GPGSA,A,3,08,11,01,10,32,27,14,22,28,,,,2.47,0.97,2.27*09

$GPGSV,4,1,13,01,42,278,30,03,06,225,,04,17,156,14,08,62,187,37*74

$GPTXT,01,01,01,NMEA unknown msg*58

$GPTXT,01,01,01,NMEA unknown msg*58

$GPTXT,01,01,01,NMEA unknown msg*58

$GPTXT,01,01,01,NMEA unknown msg*58

$GPTXT,01,01,01,NMEA unknown msg*58

$GPTXT,01,01,01,NMEA unknown msg*58

$GPTXT,01,01,01,NMEA unknown msg*58

$GPTXT,01,01,01,NMEA unknown msg*58

$GPTXT,01,01,01,NMEA unknown msg*58

$GPTXT,01,01,01,NMEA unknown msg*58

$GPTXT,01,01,01,NMEA unknown msg*58

$GPTXT,01,01,01,NMEA unknown msg*58

$GPTXT,01,01,01,NMEA unknown msg*58

$GPTXT,01,01,01,NMEA unknown msg*58

$GPTXT,01,01,01,NMEA unknown msg*58

$GPTXT,01,01,01,NMEA unknown msg*58

$GPTXT,01,01,01,NMEA unknown msg*58

$GPTXT,01,01,01,NMEA unknown msg*58

$GPTXT,01,01,01,NMEA unknown msg*58

$GPTXT,01,01,01,NMEA unknown msg*58

$GPTXT,01,01,01,NMEA unknown msg*58

$GPTXT,01,01,01,NMEA unknown msg*58

$GPTXT,01,01,01,NMEA unknown msg*58

$GPTXT,01,01,01,NMEA unknown msg*58

$GPTXT,01,01,01,NMEA unknown msg*58

$GPTXT,01,01,01,NMEA unknown msg*58

$GPTXT,01,01,01,NMEA unknown msg*58

$GPTXT,01,01,01,NMEA unknown msg*58

$GPTXT,01,01,01,NMEA unknown msg*58

$GPTXT,01,01,01,NMEA unknown msg*58

$GPTXT,01,01,01,NMEA unknown msg*58

$GPTXT,01,01,01,NMEA unknown msg*58

$GPTXT,01,01,01,NMEA unknown msg*58

$GPTXT,01,01,01,NMEA unknown msg*58

$GPTXT,01,01,01,NMEA unknown msg*58

$GPTXT,01,01,01,NMEA unknown msg*58

$GPTXT,01,01,01,NMEA unknown msg*58

$GPTXT,01,01,01,NMEA unknown msg*58

$GPTXT,01,01,01,NMEA unknown msg*58

$GPTXT,01,01,01,NMEA unknown msg*58

$GPRMC,122314.00,A,5327.66551,N,00957.81546,E,2.378,85.84,180917,,,A*57

$GPVTG,85.84,T,,M,2.378,N,4.405,K,A*07

$GPGGA,122314.00,5327.66551,N,00957.81546,E,1,10,0.88,10.7,M,45.2,M,,*68

$GPGSA,A,3,08,11,01,10,32,27,14,22,28,18,,,2.06,0.88,1.86*03

$GPGSV,4,1,13,01,42,278,29,03,06,225,,04,17,156,18,08,62,187,35*72

$GPGSV,4,2,13,10,39,060,31,11,56,282,30,14,29,128,25,18,12,056,15*75

$GPGSV,4,3,13,22,29,222,33,24,04,033,,27,31,156,21,28,27,309,20*76

$GPGSV,4,4,13,32,37,111,28*45

$GPGLL,5327.66551,N,00957.81546,E,122314.00,A,A*69

$GPTXT,01,01,01,NMEA unknown msg*58

$GPTXT,01,01,01,NMEA unknown msg*58

$GPTXT,01,01,01,NMEA unknown msg*58

$GPTXT,01,01,01,NMEA unknown msg*58

$GPTXT,01,01,01,NMEA unknown msg*58

$GPTXT,01,01,01,NMEA unknown msg*58

$GPTXT,01,01,01,NMEA unknown msg*58

$GPTXT,01,01,01,NMEA unknown msg*58

$GPTXT,01,01,01,NMEA unknown msg*58

$GPTXT,01,01,01,NMEA unknown msg*58

$GPTXT,01,01,01,NMEA unknown msg*58

$GPTXT,01,01,01,NMEA unknown msg*58

$GPTXT,01,01,01,NMEA unknown msg*58

$GPTXT,01,01,01,NMEA unknown msg*58

$GPRMC,122315.00,A,5327.66554,N,00957.81644,E,2.293,85.18,180917,,,A*53

$GPVTG,85.18,T,,M,2.293,N,4.247,K,A*06

$GPGGA,122315.00,5327.66554,N,00957.81644,E,1,10,0.88,10.5,M,45.2,M,,*6F

$GPGSA,A,3,08,11,01,10,32,27,14,22,28,18,,,2.06,0.88,1.86*03

$GPGSV,4,1,13,01,42,278,29,03,06,225,,04,17,156,19,08,62,187,34*72

$GPTXT,01,01,01,NMEA unknown msg*58

$GPTXT,01,01,00,txbuf alloc*7F

$GPTXT,01,01,01,NMEA unknown msg*58

$GPTXT,01,01,01,NMEA unknown msg*58

$GPTXT,01,01,01,NMEA unknown msg*58

$GPTXT,01,01,01,NMEA unknown msg*58

$GPTXT,01,01,01,NMEA unknown msg*58

$GPTXT,01,01,01,NMEA unknown msg*58

$GPTXT,01,01,01,NMEA unknown msg*58

$GPTXT,01,01,01,NMEA unknown msg*58

$GPTXT,01,01,01,NMEA unknown msg*58

$GPTXT,01,01,01,NMEA unknown msg*58

$GPTXT,01,01,01,NMEA unknown msg*58

$GPTXT,01,01,01,NMEA unknown msg*58

$GPTXT,01,01,01,NMEA unknown msg*58

$GPTXT,01,01,01,NMEA unknown msg*58

$GPTXT,01,01,01,NMEA unknown msg*58

$GPTXT,01,01,01,NMEA unknown msg*58

$GPTXT,01,01,01,NMEA unknown msg*58

$GPTXT,01,01,01,NMEA unknown msg*58

$GPTXT,01,01,01,NMEA unknown msg*58

$GPTXT,01,01,01,NMEA unknown msg*58

$GPTXT,01,01,01,NMEA unknown msg*58

$GPTXT,01,01,01,NMEA unknown msg*58

$GPTXT,01,01,01,NMEA unknown msg*58

$GPTXT,01,01,01,NMEA unknown msg*58

$GPTXT,01,01,01,NMEA unknown msg*58

$GPTXT,01,01,01,NMEA unknown msg*58

$GPTXT,01,01,01,NMEA unknown msg*58

$GPTXT,01,01,01,NMEA unknown msg*58

$GPTXT,01,01,01,NMEA unknown msg*58

$GPTXT,01,01,01,NMEA unknown msg*58

$GPTXT,01,01,01,NMEA unknown msg*58

$GPTXT,01,01,01,NMEA unknown msg*58

$GPTXT,01,01,01,NMEA unknown msg*58

$GPTXT,01,01,01,NMEA unknown msg*58

$GPTXT,01,01,01,NMEA unknown msg*58

$GPTXT,01,01,01,NMEA unknown msg*58

$GPTXT,01,01,01,NMEA unknown msg*58

$GPTXT,01,01,01,NMEA unknown msg*58

$GPTXT,01,01,01,NMEA unknown msg*58

$GPRMC,122317.00,A,5327.66543,N,00957.81864,E,2.407,92.94,180917,,,A*52

$GPVTG,92.94,T,,M,2.407,N,4.457,K,A*08

$GPGGA,122317.00,5327.66543,N,00957.81864,E,1,10,0.88,10.1,M,45.2,M,,*63

$GPGSA,A,3,08,11,01,10,32,27,14,22,28,18,,,2.06,0.88,1.86*03

$GPGSV,4,1,13,01,42,278,29,03,06,225,,04,17,156,18,08,62,187,34*73

$GPGSV,4,2,13,10,39,060,31,11,56,282,29,14,29,128,24,18,12,056,19*70

$GPGSV,4,3,13,22,29,222,31,24,04,033,,27,31,156,26,28,27,309,20*73

$GPGSV,4,4,13,32,37,111,26*4B

$GPGLL,5327.66543,N,00957.81864,E,122317.00,A,A*64

$GPTXT,01,01,01,NMEA unknown msg*58

$GPTXT,01,01,01,NMEA unknown msg*58

$GPTXT,01,01,01,NMEA unknown msg*58

$GPTXT,01,01,01,NMEA unknown msg*58

$GPTXT,01,01,01,NMEA unknown msg*58

$GPTXT,01,01,01,NMEA unknown msg*58

$GPTXT,01,01,01,NMEA unknown msg*58

$GPTXT,01,01,01,NMEA unknown msg*58

$GPTXT,01,01,01,NMEA unknown msg*58

$GPTXT,01,01,01,NMEA unknown msg*58

$GPTXT,01,01,01,NMEA unknown msg*58

$GPTXT,01,01,01,NMEA unknown msg*58

$GPTXT,01,01,01,NMEA unknown msg*58

$GPTXT,01,01,01,NMEA unknown msg*58

$GPTXT,01,01,01,NMEA unknown msg*58

$GPTXT,01,01,01,NMEA unknown msg*58

$GPTXT,01,01,01,NMEA unknown msg*58

$GPTXT,01,01,01,NMEA unknown msg*58

$GPRMC,122318.00,A,5327.66529,N,00957.81977,E,2.367,97.49,180917,,,A*56

$GPVTG,97.49,T,,M,2.367,N,4.383,K,A*02

$GPTXT,01,01,01,NMEA unknown msg*58

$GPTXT,01,01,01,NMEA unknown msg*58

$GPTXT,01,01,01,NMEA unknown msg*58

$GPTXT,01,01,01,NMEA unknown msg*58

$GPTXT,01,01,01,NMEA unknown msg*58

$GPTXT,01,01,01,NMEA unknown msg*58

$GPTXT,01,01,01,NMEA unknown msg*58

$GPTXT,01,01,01,NMEA unknown msg*58

$GPTXT,01,01,01,NMEA unknown msg*58

$GPTXT,01,01,01,NMEA unknown msg*58

$GPTXT,01,01,01,NMEA unknown msg*58

$GPTXT,01,01,01,NMEA unknown msg*58

$GPTXT,01,01,01,NMEA unknown msg*58

$GPTXT,01,01,01,NMEA unknown msg*58

$GPTXT,01,01,01,NMEA unknown msg*58

$GPTXT,01,01,01,NMEA unknown msg*58

$GPTXT,01,01,01,NMEA unknown msg*58

$GPTXT,01,01,01,NMEA unknown msg*58

$GPRMC,122319.00,A,5327.66522,N,00957.82087,E,2.524,93.28,180917,,,A*5B

$GPVTG,93.28,T,,M,2.524,N,4.674,K,A*0D

$GPGGA,122319.00,5327.66522,N,00957.82087,E,1,10,0.88,10.1,M,45.2,M,,*6C

$GPGSA,A,3,08,11,01,10,32,27,14,22,28,18,,,2.06,0.88,1.86*03

$GPTXT,01,01,00,txbuf alloc*7F

$GPTXT,01,01,01,NMEA unknown msg*58

$GPTXT,01,01,01,NMEA unknown msg*58

$GPTXT,01,01,01,NMEA unknown msg*58

$GPTXT,01,01,01,NMEA unknown msg*58

$GPTXT,01,01,01,NMEA unknown msg*58

$GPTXT,01,01,01,NMEA unknown msg*58

$GPTXT,01,01,01,NMEA unknown msg*58

$GPTXT,01,01,01,NMEA unknown msg*58

$GPTXT,01,01,01,NMEA unknown msg*58

$GPTXT,01,01,01,NMEA unknown msg*58

$GPTXT,01,01,01,NMEA unknown msg*58

$GPTXT,01,01,01,NMEA unknown msg*58

$GPTXT,01,01,01,NMEA unknown msg*58

$GPTXT,01,01,01,NMEA unknown msg*58

$GPTXT,01,01,01,NMEA unknown msg*58

$GPTXT,01,01,01,NMEA unknown msg*58

$GPTXT,01,01,01,NMEA unknown msg*58

$GPTXT,01,01,01,NMEA unknown msg*58

$GPRMC,122320.00,A,5327.66515,N,00957.82192,E,2.133,89.63,180917,,,A*56

$GPVTG,89.63,T,,M,2.133,N,3.951,K,A*04

$GPGGA,122320.00,5327.66515,N,00957.82192,E,1,10,0.88,10.0,M,45.2,M,,*66

$GPGSA,A,3,08,11,01,10,32,27,14,22,28,18,,,2.06,0.88,1.86*03

$GPGSV,4,1,13,01,42,278,30,03,06,225,,04,17,156,21,08,62,187,35*70

$GPGSV,4,2,13,10,39,060,33,11,56,282,29,14,29,128,22,18,11,056,15*7B

$GPGSV,4,3,13,22,29,222,31,24,04,033,,27,31,156,33,28,27,309,19*7D

$GPTXT,01,01,01,NMEA unknown msg*58

$GPTXT,01,01,01,NMEA unknown msg*58

$GPTXT,01,01,01,NMEA unknown msg*58

$GPTXT,01,01,01,NMEA unknown msg*58

$GPTXT,01,01,01,NMEA unknown msg*58

$GPTXT,01,01,01,NMEA unknown msg*58

$GPTXT,01,01,01,NMEA unknown msg*58

$GPTXT,01,01,01,NMEA unknown msg*58

$GPTXT,01,01,01,NMEA unknown msg*58

$GPTXT,01,01,01,NMEA unknown msg*58

$GPTXT,01,01,01,NMEA unknown msg*58

$GPTXT,01,01,01,NMEA unknown msg*58

$GPTXT,01,01,01,NMEA unknown msg*58

$GPTXT,01,01,01,NMEA unknown msg*58

$GPTXT,01,01,01,NMEA unknown msg*58

$GPTXT,01,01,01,NMEA unknown msg*58

$GPTXT,01,01,01,NMEA unknown msg*58

$GPTXT,01,01,01,NMEA unknown msg*58

$GPRMC,122321.00,A,5327.66516,N,00957.82299,E,2.373,91.29,180917,,,A*5D

$GPTXT,01,01,01,NMEA unknown msg*58

$GPTXT,01,01,01,NMEA unknown msg*58

$GPTXT,01,01,01,NMEA unknown msg*58

$GPTXT,01,01,01,NMEA unknown msg*58

$GPTXT,01,01,01,NMEA unknown msg*58

$GPTXT,01,01,01,NMEA unknown msg*58

$GPTXT,01,01,01,NMEA unknown msg*58

$GPTXT,01,01,01,NMEA unknown msg*58

$GPTXT,01,01,01,NMEA unknown msg*58

$GPTXT,01,01,01,NMEA unknown msg*58

$GPTXT,01,01,01,NMEA unknown msg*58

$GPTXT,01,01,01,NMEA unknown msg*58

$GPTXT,01,01,01,NMEA unknown msg*58

$GPTXT,01,01,01,NMEA unknown msg*58

$GPTXT,01,01,01,NMEA unknown msg*58

$GPTXT,01,01,01,NMEA unknown msg*58

$GPTXT,01,01,01,NMEA unknown msg*58

$GPTXT,01,01,01,NMEA unknown msg*58

$GPRMC,122322.00,A,5327.66511,N,00957.82399,E,2.053,92.92,180917,,,A*5A

$GPVTG,92.92,T,,M,2.053,N,3.803,K,A*01

$GPGGA,122322.00,5327.66511,N,00957.82399,E,1,10,0.88,10.2,M,45.2,M,,*6B

$GPGSA,A,3,08,11,01,10,32,27,14,22,28,18,,,2.06,0.88,1.86*03

$GPGSV,4,1,13,01,42,278,29,03,06,225,,04,17,156,20,08,62,187,35*79

$GPGSV,4,2,13,10,39,060,32,11,56,282,29,14,29,128,24,18,11,056,15*7C

$GPGSV,4,3,13,22,29,222,31,24,04,033,,27,31,156,28,28,27,309,19*77

$GPGSV,4,4,13,32,37,111,27*4A

$GPTXT,01,01,01,NMEA unknown msg*58

$GPTXT,01,01,01,NMEA unknown msg*58

$GPTXT,01,01,01,NMEA unknown msg*58

$GPTXT,01,01,01,NMEA unknown msg*58

$GPTXT,01,01,01,NMEA unknown msg*58

$GPTXT,01,01,01,NMEA unknown msg*58

$GPTXT,01,01,01,NMEA unknown msg*58

$GPTXT,01,01,01,NMEA unknown msg*58

$GPTXT,01,01,01,NMEA unknown msg*58

$GPTXT,01,01,01,NMEA unknown msg*58

$GPTXT,01,01,01,NMEA unknown msg*58

$GPTXT,01,01,01,NMEA unknown msg*58

$GPTXT,01,01,01,NMEA unknown msg*58

$GPTXT,01,01,01,NMEA unknown msg*58

$GPTXT,01,01,01,NMEA unknown msg*58

$GPTXT,01,01,01,NMEA unknown msg*58

$GPTXT,01,01,01,NMEA unknown msg*58

$GPTXT,01,01,01,NMEA unknown msg*58

$GPTXT,01,01,01,NMEA unknown msg*58

$GPTXT,01,01,01,NMEA unknown msg*58

$GPTXT,01,01,01,NMEA unknown msg*58

$GPTXT,01,01,00,txbuf alloc*7F

$GPTXT,01,01,01,NMEA unknown msg*58

$GPTXT,01,01,01,NMEA unknown msg*58

$GPTXT,01,01,01,NMEA unknown msg*58

$GPTXT,01,01,01,NMEA unknown msg*58

$GPTXT,01,01,01,NMEA unknown msg*58

$GPTXT,01,01,01,NMEA unknown msg*58

$GPTXT,01,01,01,NMEA unknown msg*58

$GPTXT,01,01,01,NMEA unknown msg*58

$GPTXT,01,01,01,NMEA unknown msg*58

$GPTXT,01,01,01,NMEA unknown msg*58

$GPTXT,01,01,01,NMEA unknown msg*58

$GPTXT,01,01,01,NMEA unknown msg*58

$GPTXT,01,01,01,NMEA unknown msg*58

$GPTXT,01,01,01,NMEA unknown msg*58

$GPTXT,01,01,01,NMEA unknown msg*58

$GPTXT,01,01,01,NMEA unknown msg*58

$GPRMC,122324.00,A,5327.66504,N,00957.82606,E,2.073,93.03,180917,,,A*50

$GPVTG,93.03,T,,M,2.073,N,3.840,K,A*0D

$GPGGA,122324.00,5327.66504,N,00957.82606,E,1,10,0.88,10.2,M,45.2,M,,*6A

$GPGSA,A,3,08,11,01,10,32,27,14,22,28,18,,,2.06,0.88,1.86*03

$GPGSV,4,1,13,01,42,278,29,03,06,225,,04,17,156,16,08,62,187,34*7D

$GPTXT,01,01,01,NMEA unknown msg*58

$GPTXT,01,01,01,NMEA unknown msg*58

$GPTXT,01,01,01,NMEA unknown msg*58

$GPTXT,01,01,01,NMEA unknown msg*58

$GPTXT,01,01,01,NMEA unknown msg*58

$GPTXT,01,01,01,NMEA unknown msg*58

$GPTXT,01,01,01,NMEA unknown msg*58

$GPTXT,01,01,01,NMEA unknown msg*58

$GPTXT,01,01,01,NMEA unknown msg*58

$GPTXT,01,01,01,NMEA unknown msg*58

$GPTXT,01,01,01,NMEA unknown msg*58

$GPTXT,01,01,01,NMEA unknown msg*58

$GPTXT,01,01,01,NMEA unknown msg*58

$GPTXT,01,01,01,NMEA unknown msg*58

$GPTXT,01,01,01,NMEA unknown msg*58

$GPTXT,01,01,01,NMEA unknown msg*58

$GPTXT,01,01,01,NMEA unknown msg*58

$GPTXT,01,01,01,NMEA unknown msg*58

$GPRMC,122325.00,A,5327.66503,N,00957.82717,E,2.516,91.50,180917,,,A*55

$GPVTG,91.50,T,,M,2.516,N,4.659,K,A*0E

$GPGGA,122325.00,5327.66503,N,00957.82717,E,1,10,0.88,10.2,M,45.2,M,,*6D

$GPGSA,A,3,08,11,01,10,32,27,14,22,28,18,,,2.06,0.88,1.86*03

$GPGSV,4,1,13,01,42,278,30,03,06,225,,04,17,156,15,08,62,187,35*77

$GPGSV,4,2,13,10,39,060,31,11,56,282,27,14,29,128,24,18,11,056,16*72

$GPGSV,4,3,13,22,29,222,32,24,04,033,,27,31,156,26,28,27,309,17*74

$GPGSV,4,4,13,32,37,111,29*44

$GPTXT,01,01,01,NMEA unknown msg*58

$GPGLL,5327.66503,N,00957.82717,E,122325.00,A,A*69

$GPTXT,01,01,01,NMEA unknown msg*58

$GPTXT,01,01,01,NMEA unknown msg*58

$GPTXT,01,01,01,NMEA unknown msg*58

$GPTXT,01,01,01,NMEA unknown msg*58

$GPTXT,01,01,01,NMEA unknown msg*58

$GPTXT,01,01,01,NMEA unknown msg*58

$GPTXT,01,01,01,NMEA unknown msg*58

$GPTXT,01,01,01,NMEA unknown msg*58

$GPTXT,01,01,01,NMEA unknown msg*58

$GPTXT,01,01,01,NMEA unknown msg*58

$GPTXT,01,01,01,NMEA unknown msg*58

$GPTXT,01,01,01,NMEA unknown msg*58

$GPTXT,01,01,01,NMEA unknown msg*58

$GPTXT,01,01,01,NMEA unknown msg*58

$GPTXT,01,01,01,NMEA unknown msg*58

$GPTXT,01,01,01,NMEA unknown msg*58

$GPTXT,01,01,01,NMEA unknown msg*58

$GPRMC,122326.00,A,5327.66505,N,00957.82831,E,2.431,90.93,180917,,,A*51

$GPVTG,90.93,T,,M,2.431,N,4.502,K,A*09

$GPGGA,122326.00,5327.66505,N,00957.82831,E,1,10,0.88,10.4,M,45.2,M,,*65

$GPTXT,01,01,01,NMEA unknown msg*58

$GPTXT,01,01,01,NMEA unknown msg*58

$GPTXT,01,01,01,NMEA unknown msg*58

$GPTXT,01,01,01,NMEA unknown msg*58

$GPTXT,01,01,01,NMEA unknown msg*58

$GPTXT,01,01,01,NMEA unknown msg*58

$GPTXT,01,01,01,NMEA unknown msg*58

$GPTXT,01,01,01,NMEA unknown msg*58

$GPTXT,01,01,01,NMEA unknown msg*58

$GPTXT,01,01,01,NMEA unknown msg*58

$GPTXT,01,01,01,NMEA unknown msg*58

$GPTXT,01,01,01,NMEA unknown msg*58

$GPTXT,01,01,01,NMEA unknown msg*58

$GPTXT,01,01,01,NMEA unknown msg*58

$GPTXT,01,01,01,NMEA unknown msg*58

$GPTXT,01,01,01,NMEA unknown msg*58

$GPTXT,01,01,01,NMEA unknown msg*58

$GPRMC,122327.00,A,5327.66503,N,00957.82941,E,2.415,92.69,180917,,,A*51

$GPVTG,92.69,T,,M,2.415,N,4.472,K,A*0E

$GPGGA,122327.00,5327.66503,N,00957.82941,E,1,10,0.88,10.4,M,45.2,M,,*64

$GPGSA,A,3,08,11,01,10,32,27,14,22,28,18,,,2.06,0.88,1.86*03

$GPGSV,4,1,13,01,42,278,28,03,06,225,,04,17,156,20,08,62,187,35*78

$GPGSV,4,2,13,10,39,060,32,11,56,282,29,14,29,128,25,18,11,056,20*7B

$GPGSV,4,3,13,22,29,222,30,24,04,033,,27,31,156,29,28,27,309,19*77

$GPGSV,4,4,13,32,37,111,27*4A

$GPTXT,01,01,01,NMEA unknown msg*58

$GPTXT,01,01,00,txbuf alloc*7F

$GPTXT,01,01,01,NMEA unknown msg*58

$GPTXT,01,01,01,NMEA unknown msg*58

$GPTXT,01,01,01,NMEA unknown msg*58

$GPTXT,01,01,01,NMEA unknown msg*58

$GPTXT,01,01,01,NMEA unknown msg*58

$GPTXT,01,01,01,NMEA unknown msg*58

$GPTXT,01,01,01,NMEA unknown msg*58

$GPTXT,01,01,01,NMEA unknown msg*58

$GPTXT,01,01,01,NMEA unknown msg*58

$GPTXT,01,01,01,NMEA unknown msg*58

$GPTXT,01,01,01,NMEA unknown msg*58

$GPTXT,01,01,01,NMEA unknown msg*58

$GPTXT,01,01,01,NMEA unknown msg*58

$GPTXT,01,01,01,NMEA unknown msg*58

$GPTXT,01,01,01,NMEA unknown msg*58

$GPTXT,01,01,01,NMEA unknown msg*58

$GPTXT,01,01,01,NMEA unknown msg*58

$GPTXT,01,01,01,NMEA unknown msg*58

$GPRMC,122328.00,A,5327.66492,N,00957.83049,E,2.373,96.43,180917,,,A*5C

$GPVTG,96.43,T,,M,2.373,N,4.395,K,A*0B

$GPGGA,122328.00,5327.66492,N,00957.83049,E,1,10,0.88,10.4,M,45.2,M,,*62

$GPTXT,01,01,01,NMEA unknown msg*58

$GPTXT,01,01,01,NMEA unknown msg*58

$GPTXT,01,01,01,NMEA unknown msg*58

$GPTXT,01,01,01,NMEA unknown msg*58

$GPTXT,01,01,01,NMEA unknown msg*58

$GPTXT,01,01,01,NMEA unknown msg*58

$GPTXT,01,01,01,NMEA unknown msg*58

$GPTXT,01,01,01,NMEA unknown msg*58

$GPTXT,01,01,01,NMEA unknown msg*58

$GPTXT,01,01,01,NMEA unknown msg*58

$GPTXT,01,01,01,NMEA unknown msg*58

$GPTXT,01,01,01,NMEA unknown msg*58

$GPTXT,01,01,01,NMEA unknown msg*58

$GPTXT,01,01,01,NMEA unknown msg*58

$GPTXT,01,01,01,NMEA unknown msg*58

$GPRMC,122329.00,A,5327.66484,N,00957.83162,E,2.422,92.27,180917,,,A*57

$GPVTG,92.27,T,,M,2.422,N,4.485,K,A*08

$GPGGA,122329.00,5327.66484,N,00957.83162,E,1,10,0.88,10.6,M,45.2,M,,*6E

$GPGSA,A,3,08,11,01,10,32,27,14,22,28,18,,,2.06,0.88,1.87*02

$GPGSV,4,1,13,01,42,278,29,03,06,225,,04,17,156,22,08,62,187,35*7B

$GPGSV,4,2,13,10,39,060,32,11,56,282,29,14,29,128,24,18,11,056,22*78

$GPTXT,01,01,01,NMEA unknown msg*58

$GPTXT,01,01,01,NMEA unknown msg*58

$GPTXT,01,01,01,NMEA unknown msg*58

$GPTXT,01,01,01,NMEA unknown msg*58

$GPTXT,01,01,01,NMEA unknown msg*58

$GPTXT,01,01,01,NMEA unknown msg*58

$GPTXT,01,01,01,NMEA unknown msg*58

$GPTXT,01,01,01,NMEA unknown msg*58

$GPTXT,01,01,01,NMEA unknown msg*58

$GPTXT,01,01,01,NMEA unknown msg*58

$GPTXT,01,01,01,NMEA unknown msg*58

$GPTXT,01,01,01,NMEA unknown msg*58

$GPTXT,01,01,01,NMEA unknown msg*58

$GPTXT,01,01,01,NMEA unknown msg*58

$GPTXT,01,01,01,NMEA unknown msg*58

$GPTXT,01,01,01,NMEA unknown msg*58

$GPTXT,01,01,01,NMEA unknown msg*58

$GPTXT,01,01,01,NMEA unknown msg*58

$GPRMC,122330.00,A,5327.66493,N,00957.83280,E,2.594,88.61,180917,,,A*53

$GPVTG,88.61,T,,M,2.594,N,4.805,K,A*09

$GPGGA,122330.00,5327.66493,N,00957.83280,E,1,10,0.88,10.9,M,45.2,M,,*60

$GPGSA,A,3,08,11,01,10,32,27,14,22,28,18,,,2.06,0.88,1.87*02

$GPGSV,4,1,13,01,42,278,28,03,06,225,,04,17,156,22,08,62,187,35*7A

$GPGSV,4,2,13,10,39,060,31,11,56,282,29,14,29,128,24,18,11,056,23*7A

$GPTXT,01,01,01,NMEA unknown msg*58

$GPTXT,01,01,01,NMEA unknown msg*58

$GPTXT,01,01,01,NMEA unknown msg*58

$GPTXT,01,01,01,NMEA unknown msg*58

$GPTXT,01,01,01,NMEA unknown msg*58

$GPTXT,01,01,01,NMEA unknown msg*58

$GPTXT,01,01,01,NMEA unknown msg*58

$GPTXT,01,01,01,NMEA unknown msg*58

$GPTXT,01,01,01,NMEA unknown msg*58

$GPTXT,01,01,01,NMEA unknown msg*58

$GPTXT,01,01,01,NMEA unknown msg*58

$GPTXT,01,01,01,NMEA unknown msg*58

$GPTXT,01,01,01,NMEA unknown msg*58

$GPTXT,01,01,01,NMEA unknown msg*58

$GPTXT,01,01,01,NMEA unknown msg*58

$GPTXT,01,01,01,NMEA unknown msg*58

$GPTXT,01,01,01,NMEA unknown msg*58

$GPRMC,122331.00,A,5327.66493,N,00957.83397,E,2.338,89.73,180917,,,A*57

$GPVTG,89.73,T,,M,2.338,N,4.331,K,A*07

$GPGGA,122331.00,5327.66493,N,00957.83397,E,1,10,0.88,11.0,M,45.2,M,,*6E

$GPTXT,01,01,00,txbuf alloc*7F

$GPTXT,01,01,01,NMEA unknown msg*58

$GPTXT,01,01,01,NMEA unknown msg*58

$GPTXT,01,01,01,NMEA unknown msg*58

$GPTXT,01,01,01,NMEA unknown msg*58

$GPTXT,01,01,01,NMEA unknown msg*58

$GPTXT,01,01,01,NMEA unknown msg*58

$GPTXT,01,01,01,NMEA unknown msg*58

$GPTXT,01,01,01,NMEA unknown msg*58

$GPTXT,01,01,01,NMEA unknown msg*58

$GPTXT,01,01,01,NMEA unknown msg*58

$GPTXT,01,01,01,NMEA unknown msg*58

$GPTXT,01,01,01,NMEA unknown msg*58

$GPTXT,01,01,01,NMEA unknown msg*58

$GPTXT,01,01,01,NMEA unknown msg*58

$GPTXT,01,01,01,NMEA unknown msg*58

$GPTXT,01,01,01,NMEA unknown msg*58

$GPTXT,01,01,01,NMEA unknown msg*58

$GPTXT,01,01,01,NMEA unknown msg*58

$GPTXT,01,01,01,NMEA unknown msg*58

$GPTXT,01,01,01,NMEA unknown msg*58

$GPRMC,122332.00,A,5327.66484,N,00957.83508,E,2.481,94.18,180917,,,A*56

$GPVTG,94.18,T,,M,2.481,N,4.595,K,A*0B

$GPGGA,122332.00,5327.66484,N,00957.83508,E,1,10,0.88,11.0,M,45.2,M,,*6B

$GPTXT,01,01,01,NMEA unknown msg*58

$GPTXT,01,01,01,NMEA unknown msg*58

$GPTXT,01,01,01,NMEA unknown msg*58

$GPTXT,01,01,01,NMEA unknown msg*58

$GPTXT,01,01,01,NMEA unknown msg*58

$GPTXT,01,01,01,NMEA unknown msg*58

$GPTXT,01,01,01,NMEA unknown msg*58

$GPTXT,01,01,01,NMEA unknown msg*58

$GPTXT,01,01,01,NMEA unknown msg*58

$GPTXT,01,01,01,NMEA unknown msg*58

$GPTXT,01,01,01,NMEA unknown msg*58

$GPTXT,01,01,01,NMEA unknown msg*58

$GPTXT,01,01,01,NMEA unknown msg*58

$GPTXT,01,01,01,NMEA unknown msg*58

$GPTXT,01,01,01,NMEA unknown msg*58

$GPTXT,01,01,01,NMEA unknown msg*58

$GPTXT,01,01,01,NMEA unknown msg*58

$GPTXT,01,01,01,NMEA unknown msg*58

$GPTXT,01,01,01,NMEA unknown msg*58

$GPRMC,122333.00,A,5327.66485,N,00957.83613,E,2.082,92.23,180917,,,A*56

$GPVTG,92.23,T,,M,2.082,N,3.856,K,A*07

$GPGGA,122333.00,5327.66485,N,00957.83613,E,1,10,0.88,11.0,M,45.2,M,,*62

$GPTXT,01,01,01,NMEA unknown msg*58

$GPTXT,01,01,01,NMEA unknown msg*58

$GPTXT,01,01,01,NMEA unknown msg*58

$GPTXT,01,01,01,NMEA unknown msg*58

$GPTXT,01,01,01,NMEA unknown msg*58

$GPTXT,01,01,01,NMEA unknown msg*58

$GPTXT,01,01,01,NMEA unknown msg*58

$GPTXT,01,01,01,NMEA unknown msg*58

$GPTXT,01,01,01,NMEA unknown msg*58

$GPTXT,01,01,01,NMEA unknown msg*58

$GPTXT,01,01,01,NMEA unknown msg*58

$GPTXT,01,01,01,NMEA unknown msg*58

$GPTXT,01,01,01,NMEA unknown msg*58

$GPTXT,01,01,01,NMEA unknown msg*58

$GPTXT,01,01,01,NMEA unknown msg*58

$GPTXT,01,01,01,NMEA unknown msg*58

$GPTXT,01,01,01,NMEA unknown msg*58

$GPTXT,01,01,01,NMEA unknown msg*58

$GPTXT,01,01,01,NMEA unknown msg*58

$GPTXT,01,01,01,NMEA unknown msg*58

$GPRMC,122334.00,A,5327.66475,N,00957.83709,E,2.177,92.73,180917,,,A*5A

$GPTXT,01,01,01,NMEA unknown msg*58

$GPTXT,01,01,01,NMEA unknown msg*58

$GPTXT,01,01,01,NMEA unknown msg*58

$GPTXT,01,01,01,NMEA unknown msg*58

$GPTXT,01,01,01,NMEA unknown msg*58

$GPTXT,01,01,01,NMEA unknown msg*58

$GPTXT,01,01,01,NMEA unknown msg*58

$GPTXT,01,01,01,NMEA unknown msg*58

$GPTXT,01,01,01,NMEA unknown msg*58

$GPTXT,01,01,01,NMEA unknown msg*58

$GPTXT,01,01,01,NMEA unknown msg*58

$GPTXT,01,01,01,NMEA unknown msg*58

$GPTXT,01,01,01,NMEA unknown msg*58

$GPTXT,01,01,01,NMEA unknown msg*58

$GPTXT,01,01,01,NMEA unknown msg*58

$GPTXT,01,01,01,NMEA unknown msg*58

$GPTXT,01,01,01,NMEA unknown msg*58

$GPTXT,01,01,01,NMEA unknown msg*58

$GPTXT,01,01,01,NMEA unknown msg*58

$GPRMC,122335.00,A,5327.66463,N,00957.83815,E,2.161,97.14,180917,,,A*5D

$GPVTG,97.14,T,,M,2.161,N,4.003,K,A*05

$GPTXT,01,01,01,NMEA unknown msg*58

$GPTXT,01,01,01,NMEA unknown msg*58

$GPTXT,01,01,01,NMEA unknown msg*58

$GPTXT,01,01,00,txbuf alloc*7F

$GPTXT,01,01,01,NMEA unknown msg*58

$GPTXT,01,01,01,NMEA unknown msg*58

$GPTXT,01,01,01,NMEA unknown msg*58

$GPTXT,01,01,01,NMEA unknown msg*58

$GPTXT,01,01,01,NMEA unknown msg*58

$GPTXT,01,01,01,NMEA unknown msg*58

$GPTXT,01,01,01,NMEA unknown msg*58

$GPTXT,01,01,01,NMEA unknown msg*58

$GPTXT,01,01,01,NMEA unknown msg*58

$GPTXT,01,01,01,NMEA unknown msg*58

$GPTXT,01,01,01,NMEA unknown msg*58

$GPTXT,01,01,01,NMEA unknown msg*58

$GPTXT,01,01,01,NMEA unknown msg*58

$GPTXT,01,01,01,NMEA unknown msg*58

$GPTXT,01,01,01,NMEA unknown msg*58

$GPTXT,01,01,01,NMEA unknown msg*58

$GPRMC,122336.00,A,5327.66452,N,00957.83927,E,2.290,95.37,180917,,,A*52

$GPVTG,95.37,T,,M,2.290,N,4.240,K,A*0E

$GPGGA,122336.00,5327.66452,N,00957.83927,E,1,10,0.88,10.7,M,45.2,M,,*63

$GPGSA,A,3,08,11,01,10,32,27,14,22,28,18,,,2.06,0.88,1.87*02

$GPGSV,4,1,13,01,42,278,30,03,06,225,,04,17,156,21,08,62,187,34*71

$GPGSV,4,2,13,10,39,060,33,11,56,282,30,14,29,128,22,18,11,056,19*7F

$GPGSV,4,3,13,22,29,222,25,24,04,033,,27,31,156,30,28,27,309,22*73

$GPTXT,01,01,01,NMEA unknown msg*58

$GPTXT,01,01,01,NMEA unknown msg*58

$GPTXT,01,01,01,NMEA unknown msg*58

$GPTXT,01,01,01,NMEA unknown msg*58

$GPTXT,01,01,01,NMEA unknown msg*58

$GPTXT,01,01,01,NMEA unknown msg*58

$GPTXT,01,01,01,NMEA unknown msg*58

$GPTXT,01,01,01,NMEA unknown msg*58

$GPTXT,01,01,01,NMEA unknown msg*58

$GPTXT,01,01,01,NMEA unknown msg*58

$GPTXT,01,01,01,NMEA unknown msg*58

$GPTXT,01,01,01,NMEA unknown msg*58

$GPTXT,01,01,01,NMEA unknown msg*58

$GPTXT,01,01,01,NMEA unknown msg*58

$GPTXT,01,01,01,NMEA unknown msg*58

$GPTXT,01,01,01,NMEA unknown msg*58

$GPTXT,01,01,01,NMEA unknown msg*58

$GPTXT,01,01,01,NMEA unknown msg*58

$GPTXT,01,01,01,NMEA unknown msg*58

$GPTXT,01,01,01,NMEA unknown msg*58

$GPRMC,122337.00,A,5327.66445,N,00957.84023,E,2.026,95.34,180917,,,A*53

$GPVTG,95.34,T,,M,2.026,N,3.751,K,A*00

$GPGGA,122337.00,5327.66445,N,00957.84023,E,1,10,0.88,10.6,M,45.2,M,,*6F

$GPGSA,A,3,08,11,01,10,32,27,14,22,28,18,,,2.06,0.88,1.87*02

$GPTXT,01,01,01,NMEA unknown msg*58

$GPTXT,01,01,01,NMEA unknown msg*58

$GPTXT,01,01,01,NMEA unknown msg*58

$GPTXT,01,01,01,NMEA unknown msg*58

$GPTXT,01,01,01,NMEA unknown msg*58

$GPTXT,01,01,01,NMEA unknown msg*58

$GPTXT,01,01,01,NMEA unknown msg*58

$GPTXT,01,01,01,NMEA unknown msg*58

$GPTXT,01,01,01,NMEA unknown msg*58

$GPTXT,01,01,01,NMEA unknown msg*58

$GPTXT,01,01,01,NMEA unknown msg*58

$GPTXT,01,01,01,NMEA unknown msg*58

$GPTXT,01,01,01,NMEA unknown msg*58

$GPTXT,01,01,01,NMEA unknown msg*58

$GPTXT,01,01,01,NMEA unknown msg*58

$GPTXT,01,01,01,NMEA unknown msg*58

$GPTXT,01,01,01,NMEA unknown msg*58

$GPTXT,01,01,01,NMEA unknown msg*58

$GPTXT,01,01,01,NMEA unknown msg*58

$GPTXT,01,01,01,NMEA unknown msg*58

$GPRMC,122338.00,A,5327.66436,N,00957.84118,E,2.139,93.89,180917,,,A*5E

$GPVTG,93.89,T,,M,2.139,N,3.961,K,A*02

$GPGGA,122338.00,5327.66436,N,00957.84118,E,1,10,0.88,10.5,M,45.2,M,,*6E

$GPGSA,A,3,08,11,01,10,32,27,14,22,28,18,,,2.06,0.88,1.87*02

$GPGSV,4,1,13,01,42,278,29,03,06,225,,04,17,156,20,08,62,187,33*7F

$GPTXT,01,01,01,NMEA unknown msg*58

$GPTXT,01,01,01,NMEA unknown msg*58

$GPTXT,01,01,01,NMEA unknown msg*58

$GPTXT,01,01,01,NMEA unknown msg*58

$GPTXT,01,01,01,NMEA unknown msg*58

$GPTXT,01,01,01,NMEA unknown msg*58

$GPTXT,01,01,01,NMEA unknown msg*58

$GPTXT,01,01,01,NMEA unknown msg*58

$GPTXT,01,01,01,NMEA unknown msg*58

$GPTXT,01,01,01,NMEA unknown msg*58

$GPTXT,01,01,01,NMEA unknown msg*58

$GPTXT,01,01,01,NMEA unknown msg*58

$GPTXT,01,01,01,NMEA unknown msg*58

$GPTXT,01,01,01,NMEA unknown msg*58

$GPTXT,01,01,01,NMEA unknown msg*58

$GPTXT,01,01,01,NMEA unknown msg*58

$GPTXT,01,01,01,NMEA unknown msg*58

$GPTXT,01,01,01,NMEA unknown msg*58

$GPTXT,01,01,01,NMEA unknown msg*58

$GPTXT,01,01,01,NMEA unknown msg*58

$GPRMC,122339.00,A,5327.66428,N,00957.84209,E,2.106,96.68,180917,,,A*55

$GPVTG,96.68,T,,M,2.106,N,3.901,K,A*02

$GPGGA,122339.00,5327.66428,N,00957.84209,E,1,10,0.88,10.3,M,45.2,M,,*65

$GPGSA,A,3,08,11,01,10,32,27,14,22,28,18,,,2.06,0.88,1.87*02

$GPTXT,01,01,00,txbuf alloc*7F

$GPTXT,01,01,01,NMEA unknown msg*58

$GPTXT,01,01,01,NMEA unknown msg*58

$GPTXT,01,01,01,NMEA unknown msg*58

$GPTXT,01,01,01,NMEA unknown msg*58

$GPTXT,01,01,01,NMEA unknown msg*58

$GPTXT,01,01,01,NMEA unknown msg*58

$GPTXT,01,01,01,NMEA unknown msg*58

$GPTXT,01,01,01,NMEA unknown msg*58

$GPTXT,01,01,01,NMEA unknown msg*58

$GPTXT,01,01,01,NMEA unknown msg*58

$GPTXT,01,01,01,NMEA unknown msg*58

$GPTXT,01,01,01,NMEA unknown msg*58

$GPTXT,01,01,01,NMEA unknown msg*58

$GPTXT,01,01,01,NMEA unknown msg*58

$GPTXT,01,01,01,NMEA unknown msg*58

$GPTXT,01,01,01,NMEA unknown msg*58

$GPTXT,01,01,01,NMEA unknown msg*58

$GPRMC,122340.00,A,5327.66411,N,00957.84308,E,2.352,100.91,180917,,,A*6A

$GPVTG,100.91,T,,M,2.352,N,4.356,K,A*36

$GPGGA,122340.00,5327.66411,N,00957.84308,E,1,10,0.88,10.2,M,45.2,M,,*60

$GPGSA,A,3,08,11,01,10,32,27,14,22,28,18,,,2.06,0.88,1.87*02

$GPTXT,01,01,01,NMEA unknown msg*58

$GPTXT,01,01,01,NMEA unknown msg*58

$GPTXT,01,01,01,NMEA unknown msg*58

$GPTXT,01,01,01,NMEA unknown msg*58

$GPTXT,01,01,01,NMEA unknown msg*58

$GPTXT,01,01,01,NMEA unknown msg*58

$GPTXT,01,01,01,NMEA unknown msg*58

$GPTXT,01,01,01,NMEA unknown msg*58

$GPTXT,01,01,01,NMEA unknown msg*58

$GPTXT,01,01,01,NMEA unknown msg*58

$GPTXT,01,01,01,NMEA unknown msg*58

$GPTXT,01,01,01,NMEA unknown msg*58

$GPTXT,01,01,01,NMEA unknown msg*58

$GPTXT,01,01,01,NMEA unknown msg*58

$GPTXT,01,01,01,NMEA unknown msg*58

$GPTXT,01,01,01,NMEA unknown msg*58

$GPTXT,01,01,01,NMEA unknown msg*58

$GPTXT,01,01,01,NMEA unknown msg*58

$GPTXT,01,01,01,NMEA unknown msg*58

$GPTXT,01,01,01,NMEA unknown msg*58

$GPTXT,01,01,01,NMEA unknown msg*58

$GPRMC,122341.00,A,5327.66402,N,00957.84392,E,1.776,99.50,180917,,,A*57

$GPVTG,99.50,T,,M,1.776,N,3.288,K,A*0E

$GPTXT,01,01,01,NMEA unknown msg*58

$GPTXT,01,01,01,NMEA unknown msg*58

$GPTXT,01,01,01,NMEA unknown msg*58

$GPTXT,01,01,01,NMEA unknown msg*58

$GPTXT,01,01,01,NMEA unknown msg*58

$GPTXT,01,01,01,NMEA unknown msg*58

$GPTXT,01,01,01,NMEA unknown msg*58

$GPTXT,01,01,01,NMEA unknown msg*58

$GPTXT,01,01,01,NMEA unknown msg*58

$GPTXT,01,01,01,NMEA unknown msg*58

$GPTXT,01,01,01,NMEA unknown msg*58

$GPTXT,01,01,01,NMEA unknown msg*58

$GPTXT,01,01,01,NMEA unknown msg*58

$GPTXT,01,01,01,NMEA unknown msg*58

$GPTXT,01,01,01,NMEA unknown msg*58

$GPTXT,01,01,01,NMEA unknown msg*58

$GPTXT,01,01,01,NMEA unknown msg*58

$GPRMC,122342.00,A,5327.66399,N,00957.84493,E,2.376,91.53,180917,,,A*5B

$GPVTG,91.53,T,,M,2.376,N,4.401,K,A*02

$GPGGA,122342.00,5327.66399,N,00957.84493,E,1,10,0.88,9.9,M,45.2,M,,*53

$GPGSA,A,3,08,11,01,10,32,27,14,22,28,18,,,2.06,0.88,1.87*02

$GPGSV,4,1,13,01,42,278,29,03,06,225,,04,17,156,15,08,62,187,34*7E

$GPGSV,4,2,13,10,39,060,33,11,56,282,29,14,29,128,23,18,11,056,14*7B

$GPTXT,01,01,01,NMEA unknown msg*58

$GPTXT,01,01,01,NMEA unknown msg*58

$GPTXT,01,01,01,NMEA unknown msg*58

$GPTXT,01,01,01,NMEA unknown msg*58

$GPTXT,01,01,01,NMEA unknown msg*58

$GPTXT,01,01,01,NMEA unknown msg*58

$GPTXT,01,01,01,NMEA unknown msg*58

$GPTXT,01,01,01,NMEA unknown msg*58

$GPTXT,01,01,01,NMEA unknown msg*58

$GPTXT,01,01,01,NMEA unknown msg*58

$GPTXT,01,01,01,NMEA unknown msg*58

$GPTXT,01,01,01,NMEA unknown msg*58

$GPTXT,01,01,01,NMEA unknown msg*58

$GPTXT,01,01,01,NMEA unknown msg*58

$GPTXT,01,01,01,NMEA unknown msg*58

$GPTXT,01,01,01,NMEA unknown msg*58

$GPTXT,01,01,01,NMEA unknown msg*58

$GPTXT,01,01,01,NMEA unknown msg*58

$GPTXT,01,01,01,NMEA unknown msg*58

$GPRMC,122343.00,A,5327.66395,N,00957.84594,E,2.159,93.02,180917,,,A*59

$GPVTG,93.02,T,,M,2.159,N,3.999,K,A*00

$GPGGA,122343.00,5327.66395,N,00957.84594,E,1,09,0.97,9.8,M,45.2,M,,*5F

$GPTXT,01,01,01,NMEA unknown msg*58

$GPTXT,01,01,00,txbuf alloc*7F

$GPTXT,01,01,01,NMEA unknown msg*58

$GPTXT,01,01,01,NMEA unknown msg*58

$GPTXT,01,01,01,NMEA unknown msg*58

$GPTXT,01,01,01,NMEA unknown msg*58

$GPTXT,01,01,01,NMEA unknown msg*58

$GPTXT,01,01,01,NMEA unknown msg*58

$GPTXT,01,01,01,NMEA unknown msg*58

$GPTXT,01,01,01,NMEA unknown msg*58

$GPTXT,01,01,01,NMEA unknown msg*58

$GPTXT,01,01,01,NMEA unknown msg*58

$GPTXT,01,01,01,NMEA unknown msg*58

$GPTXT,01,01,01,NMEA unknown msg*58

$GPTXT,01,01,01,NMEA unknown msg*58

$GPTXT,01,01,01,NMEA unknown msg*58

$GPTXT,01,01,01,NMEA unknown msg*58

$GPTXT,01,01,01,NMEA unknown msg*58

$GPTXT,01,01,01,NMEA unknown msg*58

$GPRMC,122344.00,A,5327.66383,N,00957.84691,E,2.175,95.44,180917,,,A*55

$GPVTG,95.44,T,,M,2.175,N,4.029,K,A*0F

$GPGGA,122344.00,5327.66383,N,00957.84691,E,1,09,0.97,9.4,M,45.2,M,,*55

$GPGSA,A,3,08,11,01,10,32,27,14,22,28,,,,2.48,0.97,2.28*09

$GPGSV,4,1,13,01,42,278,28,03,06,225,,04,17,156,14,08,62,187,34*7E

$GPTXT,01,01,01,NMEA unknown msg*58

$GPTXT,01,01,01,NMEA unknown msg*58

$GPTXT,01,01,01,NMEA unknown msg*58

$GPTXT,01,01,01,NMEA unknown msg*58

$GPTXT,01,01,01,NMEA unknown msg*58

$GPTXT,01,01,01,NMEA unknown msg*58

$GPTXT,01,01,01,NMEA unknown msg*58

$GPTXT,01,01,01,NMEA unknown msg*58

$GPTXT,01,01,01,NMEA unknown msg*58

$GPTXT,01,01,01,NMEA unknown msg*58

$GPTXT,01,01,01,NMEA unknown msg*58

$GPTXT,01,01,01,NMEA unknown msg*58

$GPTXT,01,01,01,NMEA unknown msg*58

$GPTXT,01,01,01,NMEA unknown msg*58

$GPTXT,01,01,01,NMEA unknown msg*58

$GPTXT,01,01,01,NMEA unknown msg*58

$GPTXT,01,01,01,NMEA unknown msg*58

$GPTXT,01,01,01,NMEA unknown msg*58

$GPTXT,01,01,01,NMEA unknown msg*58

$GPTXT,01,01,01,NMEA unknown msg*58

$GPTXT,01,01,01,NMEA unknown msg*58

$GPRMC,122345.00,A,5327.66364,N,00957.84768,E,1.943,109.47,180917,,,A*63

$GPVTG,109.47,T,,M,1.943,N,3.598,K,A*3E

$GPGGA,122345.00,5327.66364,N,00957.84768,E,1,09,0.97,9.3,M,45.2,M,,*5D

$GPTXT,01,01,01,NMEA unknown msg*58

$GPTXT,01,01,01,NMEA unknown msg*58

$GPTXT,01,01,01,NMEA unknown msg*58

$GPTXT,01,01,01,NMEA unknown msg*58


