41,277,38,03,05,224,,04,18,156,08,08,63,188,36*7F

$GPGSV,4,2,13,10,40,060,31,11,55,282,39,14,28,129,20,18,12,056,20*72

$GPGSV,4,3,13,22,28,222,29,24,04,033,,27,32,156,31,28,26,310,39*7F

$GPGSV,4,4,13,32,37,112,28*46

$GPGLL,5327.66336,N,00957.84912,E,122156.00,A,A*62

$GPGST,122156.00,29,,,,2.7,2.3,5.5*5B

$GPZDA,122156.00,18,09,2017,00,00*61

$GPGBS,122156.00,2.7,2.3,5.5,,,,*46

$GPTXT,01,01,01,NMEA unknown msg*58

$GPTXT,01,01,01,NMEA unknown msg*58

$GPTXT,01,01,01,NMEA unknown msg*58

$GPTXT,01,01,01,NMEA unknown msg*58

$GPTXT,01,01,01,NMEA unknown msg*58

$GPTXT,01,01,01,NMEA unknown msg*58

$GPTXT,01,01,01,NMEA unknown msg*58

$GPTXT,01,01,01,NMEA unknown msg*58

$GPTXT,01,01,01,NMEA unknown msg*58

$GPTXT,01,01,01,NMEA unknown msg*58

$GPTXT,01,01,01,NMEA unknown msg*58

$GPTXT,01,01,01,NMEA unknown msg*58

$GPTXT,01,01,01,NMEA unknown msg*58

$GPTXT,01,01,01,NMEA unknown msg*58

$GPRMC,122157.00,A,5327.66340,N,00957.84917,E,0.066,,180917,,,A*78

$GPVTG,,T,,M,0.066,N,0.122,K,A*22

$GPGGA,122157.00,5327.66340,N,00957.84917,E,1,10,0.87,12.6,M,45.2,M,,*6A

$GPGSA,A,3,08,11,01,10,32,27,14,22,28,18,,,2.05,0.87,1.86*0F

$GPGSV,4,1,13,01,41,277,38,03,05,224,,04,18,156,08,08,63,188,35*7C

$GPGSV,4,2,13,10,40,060,31,11,55,282,38,14,28,129,19,18,12,056,18*72

$GPGSV,4,3,13,22,28,222,29,24,04,033,,27,32,156,30,28,26,310,38*7F

$GPGSV,4,4,13,32,37,112,29*47

$GPGLL,5327.66340,N,00957.84917,E,122157.00,A,A*67

$GPGST,122157.00,30,,,,2.7,2.3,5.5*52

$GPZDA,122157.00,18,09,2017,00,00*60

$GPGBS,122157.00,2.7,2.3,5.5,,,,*47

$GPTXT,01,01,01,NMEA unknown msg*58

$GPTXT,01,01,01,NMEA unknown msg*58

$GPTXT,01,01,01,NMEA unknown msg*58

$GPTXT,01,01,01,NMEA unknown msg*58

$GPTXT,01,01,01,NMEA unknown msg*58

$GPTXT,01,01,01,NMEA unknown msg*58

$GPTXT,01,01,01,NMEA unknown msg*58

$GPTXT,01,01,01,NMEA unknown msg*58

$GPTXT,01,01,01,NMEA unknown msg*58

$GPTXT,01,01,01,NMEA unknown msg*58

$GPTXT,01,01,01,NMEA unknown msg*58

$GPTXT,01,01,01,NMEA unknown msg*58

$GPTXT,01,01,01,NMEA unknown msg*58

$GPTXT,01,01,01,NMEA unknown msg*58

$GPTXT,01,01,01,NMEA unknown msg*58

$GPTXT,01,01,01,NMEA unknown msg*58

$GPTXT,01,01,01,NMEA unknown msg*58

$GPTXT,01,01,01,NMEA unknown msg*58

$GPTXT,01,01,01,NMEA unknown msg*58

$GPRMC,122158.00,A,5327.66342,N,00957.84913,E,0.125,,180917,,,A*77

$GPVTG,,T,,M,0.125,N,0.232,K,A*26

$GPGGA,122158.00,5327.66342,N,00957.84913,E,1,10,0.87,12.7,M,45.2,M,,*62

$GPGSA,A,3,08,11,01,10,32,27,14,22,28,18,,,2.05,0.87,1.86*0F

$GPGSV,4,1,13,01,41,277,29,03,05,224,,04,18,156,08,08,63,188,36*7F

$GPGSV,4,2,13,10,40,060,26,11,55,282,34,14,28,129,18,18,12,056,18*79

$GPGSV,4,3,13,22,28,222,30,24,04,033,,27,32,156,29,28,26,310,33*74

$GPGSV,4,4,13,32,37,112,20*4E

$GPGLL,5327.66342,N,00957.84913,E,122158.00,A,A*6E

$GPGST,122158.00,36,,,,2.7,2.3,5.6*58

$GPZDA,122158.00,18,09,2017,00,00*6F

$GPGBS,122158.00,2.7,2.3,5.6,,,,*4B

$GPTXT,01,01,01,NMEA unknown msg*58

$GPTXT,01,01,01,NMEA unknown msg*58

$GPTXT,01,01,01,NMEA unknown msg*58

$GPTXT,01,01,01,NMEA unknown msg*58

$GPTXT,01,01,01,NMEA unknown msg*58

$GPTXT,01,01,01,NMEA unknown msg*58

$GPTXT,01,01,01,NMEA unknown msg*58

$GPTXT,01,01,01,NMEA unknown msg*58

$GPTXT,01,01,01,NMEA unknown msg*58

$GPTXT,01,01,01,NMEA unknown msg*58

$GPTXT,01,01,01,NMEA unknown msg*58

$GPTXT,01,01,01,NMEA unknown msg*58

$GPTXT,01,01,01,NMEA unknown msg*58

$GPTXT,01,01,01,NMEA unknown msg*58

$GPTXT,01,01,01,NMEA unknown msg*58

$GPTXT,01,01,01,NMEA unknown msg*58

$GPTXT,01,01,01,NMEA unknown msg*58

$GPTXT,01,01,01,NMEA unknown msg*58

$GPTXT,01,01,01,NMEA unknown msg*58

$GPTXT,01,01,01,NMEA unknown msg*58

$GPTXT,01,01,01,NMEA unknown msg*58

$GPTXT,01,01,01,NMEA unknown msg*58

$GPRMC,122159.00,A,5327.66346,N,00957.84921,E,0.071,,180917,,,A*73

$GPVTG,,T,,M,0.071,N,0.131,K,A*26

$GPGGA,122159.00,5327.66346,N,00957.84921,E,1,10,0.87,12.6,M,45.2,M,,*67

$GPGSA,A,3,08,11,01,10,32,27,14,22,28,18,,,2.05,0.87,1.86*0F

$GPGSV,4,1,13,01,41,277,38,03,05,224,,04,18,156,08,08,63,188,34*7D

$GPGSV,4,2,13,10,40,060,31,11,55,282,35,14,28,129,18,18,12,056,18*7E

$GPGSV,4,3,13,22,28,222,32,24,04,033,,27,31,156,31,28,26,310,36*79

$GPGSV,4,4,13,32,37,112,22*4C

$GPGLL,5327.66346,N,00957.84921,E,122159.00,A,A*6A

$GPGST,122159.00,33,,,,2.8,2.3,5.6*53

$GPZDA,122159.00,18,09,2017,00,00*6E

$GPGBS,122159.00,2.8,2.3,5.6,,,,*45

$GPTXT,01,01,01,NMEA unknown msg*58

$GPTXT,01,01,01,NMEA unknown msg*58

$GPTXT,01,01,01,NMEA unknown msg*58

$GPTXT,01,01,01,NMEA unknown msg*58

$GPTXT,01,01,01,NMEA unknown msg*58

$GPTXT,01,01,01,NMEA unknown msg*58

$GPTXT,01,01,01,NMEA unknown msg*58

$GPTXT,01,01,01,NMEA unknown msg*58

$GPTXT,01,01,01,NMEA unknown msg*58

$GPTXT,01,01,01,NMEA unknown msg*58

$GPTXT,01,01,01,NMEA unknown msg*58

$GPTXT,01,01,01,NMEA unknown msg*58

$GPTXT,01,01,01,NMEA unknown msg*58

$GPTXT,01,01,01,NMEA unknown msg*58

$GPTXT,01,01,01,NMEA unknown msg*58

$GPTXT,01,01,01,NMEA unknown msg*58

$GPTXT,01,01,01,NMEA unknown msg*58

$GPTXT,01,01,01,NMEA unknown msg*58

$GPTXT,01,01,01,NMEA unknown msg*58

$GPTXT,01,01,01,NMEA unknown msg*58

$GPTXT,01,01,01,NMEA unknown msg*58

$GPTXT,01,01,01,NMEA unknown msg*58

$GPRMC,122200.00,A,5327.66331,N,00957.84912,E,0.046,,180917,,,A*78

$GPVTG,,T,,M,0.046,N,0.085,K,A*2C

$GPGGA,122200.00,5327.66331,N,00957.84912,E,1,10,0.87,12.2,M,45.2,M,,*6C

$GPGSA,A,3,08,11,01,10,32,27,14,22,28,18,,,2.05,0.87,1.86*0F

$GPGSV,4,1,13,01,41,277,36,03,05,224,,04,18,156,07,08,63,188,34*7C

$GPGSV,4,2,13,10,40,060,29,11,55,282,35,14,28,129,19,18,12,056,15*7B

$GPGSV,4,3,13,22,28,222,30,24,04,033,,27,31,156,36,28,27,310,33*78

$GPGSV,4,4,13,32,37,112,21*4F

$GPGLL,5327.66331,N,00957.84912,E,122200.00,A,A*65

$GPGST,122200.00,35,,,,2.7,2.4,5.6*52

$GPZDA,122200.00,18,09,2017,00,00*61

$GPGBS,122200.00,2.7,2.4,5.6,,,,*42

$GPTXT,01,01,01,NMEA unknown msg*58

$GPTXT,01,01,01,NMEA unknown msg*58

$GPTXT,01,01,01,NMEA unknown msg*58

$GPTXT,01,01,01,NMEA unknown msg*58

$GPTXT,01,01,01,NMEA unknown msg*58

$GPTXT,01,01,01,NMEA unknown msg*58

$GPTXT,01,01,01,NMEA unknown msg*58

$GPTXT,01,01,01,NMEA unknown msg*58

$GPTXT,01,01,01,NMEA unknown msg*58

$GPTXT,01,01,01,NMEA unknown msg*58

$GPTXT,01,01,01,NMEA unknown msg*58

$GPTXT,01,01,01,NMEA unknown msg*58

$GPTXT,01,01,01,NMEA unknown msg*58

$GPTXT,01,01,01,NMEA unknown msg*58

$GPTXT,01,01,01,NMEA unknown msg*58

$GPTXT,01,01,01,NMEA unknown msg*58

$GPTXT,01,01,01,NMEA unknown msg*58

$GPTXT,01,01,01,NMEA unknown msg*58

$GPTXT,01,01,01,NMEA unknown msg*58

$GPRMC,122201.00,A,5327.66351,N,00957.84922,E,1.553,342.13,180917,,,A*65

$GPVTG,342.13,T,,M,1.553,N,2.876,K,A*33

$GPGGA,122201.00,5327.66351,N,00957.84922,E,1,10,0.87,12.1,M,45.2,M,,*6B

$GPGSA,A,3,08,11,01,10,32,27,14,22,28,18,,,2.06,0.87,1.86*0C

$GPGSV,4,1,13,01,41,277,36,03,05,224,,04,18,156,07,08,63,188,33*7B

$GPGSV,4,2,13,10,40,060,28,11,55,282,31,14,28,129,21,18,12,056,14*74

$GPGSV,4,3,13,22,28,222,22,24,04,033,,27,31,156,34,28,27,310,27*7C

$GPGSV,4,4,13,32,37,112,21*4F

$GPGLL,5327.66351,N,00957.84922,E,122201.00,A,A*61

$GPGST,122201.00,39,,,,2.8,2.4,5.8*5E

$GPZDA,122201.00,18,09,2017,00,00*60

$GPGBS,122201.00,2.8,2.4,5.8,,,,*42

$GPTXT,01,01,01,NMEA unknown msg*58

$GPTXT,01,01,01,NMEA unknown msg*58

$GPTXT,01,01,01,NMEA unknown msg*58

$GPTXT,01,01,01,NMEA unknown msg*58

$GPTXT,01,01,01,NMEA unknown msg*58

$GPTXT,01,01,01,NMEA unknown msg*58

$GPTXT,01,01,01,NMEA unknown msg*58

$GPTXT,01,01,01,NMEA unknown msg*58

$GPTXT,01,01,01,NMEA unknown msg*58

$GPTXT,01,01,01,NMEA unknown msg*58

$GPTXT,01,01,01,NMEA unknown msg*58

$GPTXT,01,01,01,NMEA unknown msg*58

$GPTXT,01,01,01,NMEA unknown msg*58

$GPTXT,01,01,01,NMEA unknown msg*58

$GPTXT,01,01,01,NMEA unknown msg*58

$GPTXT,01,01,01,NMEA unknown msg*58

$GPTXT,01,01,01,NMEA unknown msg*58

$GPTXT,01,01,01,NMEA unknown msg*58

$GPTXT,01,01,01,NMEA unknown msg*58

$GPTXT,01,01,01,NMEA unknown msg*58

$GPTXT,01,01,01,NMEA unknown msg*58

$GPTXT,01,01,01,NMEA unknown msg*58

$GPTXT,01,01,01,NMEA unknown msg*58

$GPTXT,01,01,01,NMEA unknown msg*58

$GPRMC,122202.00,A,5327.66376,N,00957.84881,E,1.862,332.19,180917,,,A*69

$GPVTG,332.19,T,,M,1.862,N,3.448,K,A*31

$GPGGA,122202.00,5327.66376,N,00957.84881,E,1,10,0.87,11.8,M,45.2,M,,*6F

$GPGSA,A,3,08,11,01,10,32,27,14,22,28,18,,,2.06,0.87,1.86*0C

$GPGSV,4,1,13,01,41,277,36,03,05,224,,04,18,156,14,08,63,188,34*7E

$GPGSV,4,2,13,10,40,060,33,11,55,282,31,14,28,129,25,18,12,056,18*76

$GPGSV,4,3,13,22,28,222,22,24,04,033,,27,31,156,34,28,27,310,27*7C

$GPGSV,4,4,13,32,37,112,28*46

$GPGLL,5327.66376,N,00957.84881,E,122202.00,A,A*6F

$GPGST,122202.00,32,,,,2.8,2.4,5.9*57

$GPZDA,122202.00,18,09,2017,00,00*63

$GPGBS,122202.00,2.8,2.4,5.9,,,,*40

$GPTXT,01,01,01,NMEA unknown msg*58

$GPTXT,01,01,01,NMEA unknown msg*58

$GPTXT,01,01,01,NMEA unknown msg*58

$GPTXT,01,01,01,NMEA unknown msg*58

$GPTXT,01,01,01,NMEA unknown msg*58

$GPTXT,01,01,01,NMEA unknown msg*58

$GPTXT,01,01,01,NMEA unknown msg*58

$GPTXT,01,01,01,NMEA unknown msg*58

$GPTXT,01,01,01,NMEA unknown msg*58

$GPTXT,01,01,01,NMEA unknown msg*58

$GPTXT,01,01,01,NMEA unknown msg*58

$GPTXT,01,01,01,NMEA unknown msg*58

$GPTXT,01,01,01,NMEA unknown msg*58

$GPTXT,01,01,01,NMEA unknown msg*58

$GPTXT,01,01,01,NMEA unknown msg*58

$GPTXT,01,01,01,NMEA unknown msg*58

$GPTXT,01,01,01,NMEA unknown msg*58

$GPTXT,01,01,01,NMEA unknown msg*58

$GPTXT,01,01,01,NMEA unknown msg*58

$GPRMC,122203.00,A,5327.66386,N,00957.84851,E,0.550,,180917,,,A*73

$GPVTG,,T,,M,0.550,N,1.019,K,A*2A

$GPGGA,122203.00,5327.66386,N,00957.84851,E,1,10,0.87,11.9,M,45.2,M,,*6D

$GPGSA,A,3,08,11,01,10,32,27,14,22,28,18,,,2.06,0.87,1.86*0C

$GPGSV,4,1,13,01,41,277,35,03,05,224,,04,18,156,14,08,63,188,30*79

$GPGSV,4,2,13,10,40,060,32,11,55,282,33,14,28,129,25,18,12,056,19*74

$GPGSV,4,3,13,22,28,222,31,24,04,033,,27,31,156,30,28,27,310,29*74

$GPGSV,4,4,13,32,37,112,29*47

$GPGLL,5327.66386,N,00957.84851,E,122203.00,A,A*6C

$GPGST,122203.00,28,,,,2.8,2.4,6.0*57

$GPZDA,122203.00,18,09,2017,00,00*62

$GPGBS,122203.00,2.8,2.4,6.0,,,,*4B

$GPTXT,01,01,01,NMEA unknown msg*58

$GPTXT,01,01,01,NMEA unknown msg*58

$GPTXT,01,01,00,txbuf alloc*7F

$GPTXT,01,01,01,NMEA unknown msg*58

$GPTXT,01,01,01,NMEA unknown msg*58

$GPTXT,01,01,01,NMEA unknown msg*58

$GPTXT,01,01,01,NMEA unknown msg*58

$GPTXT,01,01,01,NMEA unknown msg*58

$GPTXT,01,01,01,NMEA unknown msg*58

$GPTXT,01,01,01,NMEA unknown msg*58

$GPTXT,01,01,01,NMEA unknown msg*58

$GPTXT,01,01,01,NMEA unknown msg*58

$GPTXT,01,01,01,NMEA unknown msg*58

$GPTXT,01,01,01,NMEA unknown msg*58

$GPTXT,01,01,01,NMEA unknown msg*58

$GPRMC,122204.00,A,5327.66399,N,00957.84822,E,1.191,328.28,180917,,,A*6B

$GPTXT,01,01,01,NMEA unknown msg*58

$GPVTG,328.28,T,,M,1.191,N,2.205,K,A*33

$GPGGA,122204.00,5327.66399,N,00957.84822,E,1,10,0.87,12.1,M,45.2,M,,*6B

$GPGSA,A,3,08,11,01,10,32,27,14,22,28,18,,,2.06,0.87,1.86*0C

$GPGSV,4,1,13,01,41,277,35,03,05,224,,04,18,156,21,08,63,188,31*7E

$GPTXT,01,01,01,NMEA unknown msg*58

$GPTXT,01,01,01,NMEA unknown msg*58

$GPTXT,01,01,01,NMEA unknown msg*58

$GPTXT,01,01,01,NMEA unknown msg*58

$GPTXT,01,01,01,NMEA unknown msg*58

$GPTXT,01,01,01,NMEA unknown msg*58

$GPTXT,01,01,01,NMEA unknown msg*58

$GPTXT,01,01,01,NMEA unknown msg*58

$GPTXT,01,01,01,NMEA unknown msg*58

$GPTXT,01,01,01,NMEA unknown msg*58

$GPTXT,01,01,01,NMEA unknown msg*58

$GPTXT,01,01,01,NMEA unknown msg*58

$GPTXT,01,01,01,NMEA unknown msg*58

$GPTXT,01,01,01,NMEA unknown msg*58

$GPTXT,01,01,01,NMEA unknown msg*58

$GPTXT,01,01,01,NMEA unknown msg*58

$GPTXT,01,01,01,NMEA unknown msg*58

$GPTXT,01,01,01,NMEA unknown msg*58

$GPTXT,01,01,01,NMEA unknown msg*58

$GPTXT,01,01,01,NMEA unknown msg*58

$GPTXT,01,01,01,NMEA unknown msg*58

$GPTXT,01,01,01,NMEA unknown msg*58

$GPRMC,122205.00,A,5327.66421,N,00957.84762,E,1.921,304.90,180917,,,A*6B

$GPTXT,01,01,01,NMEA unknown msg*58

$GPTXT,01,01,01,NMEA unknown msg*58

$GPTXT,01,01,01,NMEA unknown msg*58

$GPTXT,01,01,01,NMEA unknown msg*58

$GPTXT,01,01,01,NMEA unknown msg*58

$GPTXT,01,01,01,NMEA unknown msg*58

$GPTXT,01,01,01,NMEA unknown msg*58

$GPTXT,01,01,01,NMEA unknown msg*58

$GPTXT,01,01,01,NMEA unknown msg*58

$GPTXT,01,01,01,NMEA unknown msg*58

$GPTXT,01,01,01,NMEA unknown msg*58

$GPTXT,01,01,01,NMEA unknown msg*58

$GPTXT,01,01,01,NMEA unknown msg*58

$GPTXT,01,01,01,NMEA unknown msg*58

$GPTXT,01,01,01,NMEA unknown msg*58

$GPTXT,01,01,01,NMEA unknown msg*58

$GPTXT,01,01,01,NMEA unknown msg*58

$GPRMC,122206.00,A,5327.66458,N,00957.84705,E,1.913,316.67,180917,,,A*6D

$GPVTG,316.67,T,,M,1.913,N,3.543,K,A*33

$GPGGA,122206.00,5327.66458,N,00957.84705,E,1,10,0.87,12.1,M,45.2,M,,*69

$GPGSA,A,3,08,11,01,10,32,27,14,22,28,18,,,2.06,0.87,1.86*0C

$GPGSV,4,1,13,01,41,277,34,03,05,224,,04,18,156,19,08,63,188,35*70

$GPTXT,01,01,01,NMEA unknown msg*58

$GPTXT,01,01,01,NMEA unknown msg*58

$GPTXT,01,01,01,NMEA unknown msg*58

$GPTXT,01,01,01,NMEA unknown msg*58

$GPTXT,01,01,01,NMEA unknown msg*58

$GPTXT,01,01,01,NMEA unknown msg*58

$GPTXT,01,01,01,NMEA unknown msg*58

$GPTXT,01,01,01,NMEA unknown msg*58

$GPTXT,01,01,01,NMEA unknown msg*58

$GPTXT,01,01,01,NMEA unknown msg*58

$GPTXT,01,01,01,NMEA unknown msg*58

$GPTXT,01,01,01,NMEA unknown msg*58

$GPTXT,01,01,01,NMEA unknown msg*58

$GPTXT,01,01,01,NMEA unknown msg*58

$GPTXT,01,01,01,NMEA unknown msg*58

$GPTXT,01,01,01,NMEA unknown msg*58

$GPTXT,01,01,01,NMEA unknown msg*58

$GPTXT,01,01,01,NMEA unknown msg*58

$GPRMC,122207.00,A,5327.66501,N,00957.84647,E,2.059,313.11,180917,,,A*66

$GPVTG,313.11,T,,M,2.059,N,3.812,K,A*3A

$GPGGA,122207.00,5327.66501,N,00957.84647,E,1,10,0.87,11.9,M,45.2,M,,*69

$GPTXT,01,01,01,NMEA unknown msg*58

$GPTXT,01,01,00,txbuf alloc*7F

$GPTXT,01,01,01,NMEA unknown msg*58

$GPTXT,01,01,01,NMEA unknown msg*58

$GPTXT,01,01,01,NMEA unknown msg*58

$GPTXT,01,01,01,NMEA unknown msg*58

$GPTXT,01,01,01,NMEA unknown msg*58

$GPTXT,01,01,01,NMEA unknown msg*58

$GPTXT,01,01,01,NMEA unknown msg*58

$GPTXT,01,01,01,NMEA unknown msg*58

$GPTXT,01,01,01,NMEA unknown msg*58

$GPTXT,01,01,01,NMEA unknown msg*58

$GPTXT,01,01,01,NMEA unknown msg*58

$GPTXT,01,01,01,NMEA unknown msg*58

$GPTXT,01,01,01,NMEA unknown msg*58

$GPTXT,01,01,01,NMEA unknown msg*58

$GPTXT,01,01,01,NMEA unknown msg*58

$GPTXT,01,01,01,NMEA unknown msg*58

$GPTXT,01,01,01,NMEA unknown msg*58

$GPTXT,01,01,01,NMEA unknown msg*58

$GPTXT,01,01,01,NMEA unknown msg*58

$GPTXT,01,01,01,NMEA unknown msg*58

$GPRMC,122208.00,A,5327.66513,N,00957.84564,E,1.848,300.00,180917,,,A*61

$GPTXT,01,01,01,NMEA unknown msg*58

$GPTXT,01,01,01,NMEA unknown msg*58

$GPTXT,01,01,01,NMEA unknown msg*58

$GPTXT,01,01,01,NMEA unknown msg*58

$GPTXT,01,01,01,NMEA unknown msg*58

$GPTXT,01,01,01,NMEA unknown msg*58

$GPTXT,01,01,01,NMEA unknown msg*58

$GPTXT,01,01,01,NMEA unknown msg*58

$GPTXT,01,01,01,NMEA unknown msg*58

$GPTXT,01,01,01,NMEA unknown msg*58

$GPTXT,01,01,01,NMEA unknown msg*58

$GPTXT,01,01,01,NMEA unknown msg*58

$GPTXT,01,01,01,NMEA unknown msg*58

$GPTXT,01,01,01,NMEA unknown msg*58

$GPTXT,01,01,01,NMEA unknown msg*58

$GPTXT,01,01,01,NMEA unknown msg*58

$GPTXT,01,01,01,NMEA unknown msg*58

$GPTXT,01,01,01,NMEA unknown msg*58

$GPTXT,01,01,01,NMEA unknown msg*58

$GPTXT,01,01,01,NMEA unknown msg*58

$GPTXT,01,01,01,NMEA unknown msg*58

$GPRMC,122209.00,A,5327.66507,N,00957.84466,E,2.425,280.19,180917,,,A*63

$GPVTG,280.19,T,,M,2.425,N,4.491,K,A*36

$GPGGA,122209.00,5327.66507,N,00957.84466,E,1,10,0.87,11.8,M,45.2,M,,*61

$GPGSA,A,3,08,11,01,10,32,27,14,22,28,18,,,2.06,0.87,1.86*0C

$GPTXT,01,01,01,NMEA unknown msg*58

$GPTXT,01,01,01,NMEA unknown msg*58

$GPTXT,01,01,01,NMEA unknown msg*58

$GPTXT,01,01,01,NMEA unknown msg*58

$GPTXT,01,01,01,NMEA unknown msg*58

$GPTXT,01,01,01,NMEA unknown msg*58

$GPTXT,01,01,01,NMEA unknown msg*58

$GPTXT,01,01,01,NMEA unknown msg*58

$GPTXT,01,01,01,NMEA unknown msg*58

$GPTXT,01,01,01,NMEA unknown msg*58

$GPTXT,01,01,01,NMEA unknown msg*58

$GPTXT,01,01,01,NMEA unknown msg*58

$GPTXT,01,01,01,NMEA unknown msg*58

$GPTXT,01,01,01,NMEA unknown msg*58

$GPTXT,01,01,01,NMEA unknown msg*58

$GPTXT,01,01,01,NMEA unknown msg*58

$GPTXT,01,01,01,NMEA unknown msg*58

$GPTXT,01,01,01,NMEA unknown msg*58

$GPTXT,01,01,01,NMEA unknown msg*58

$GPTXT,01,01,01,NMEA unknown msg*58

$GPTXT,01,01,01,NMEA unknown msg*58

$GPGSV,4,1,13,01,41,277,32,03,05,224,,04,18,156,12,08,63,188,34*7C

$GPGSV,4,2,13,10,40,060,32,11,55,282,32,14,28,129,19,18,12,056,17*74

$GPTXT,01,01,01,NMEA unknown msg*58

$GPTXT,01,01,01,NMEA unknown msg*58

$GPTXT,01,01,01,NMEA unknown msg*58

$GPTXT,01,01,01,NMEA unknown msg*58

$GPTXT,01,01,01,NMEA unknown msg*58

$GPTXT,01,01,01,NMEA unknown msg*58

$GPTXT,01,01,01,NMEA unknown msg*58

$GPTXT,01,01,01,NMEA unknown msg*58

$GPTXT,01,01,01,NMEA unknown msg*58

$GPTXT,01,01,01,NMEA unknown msg*58

$GPTXT,01,01,01,NMEA unknown msg*58

$GPTXT,01,01,01,NMEA unknown msg*58

$GPTXT,01,01,01,NMEA unknown msg*58

$GPTXT,01,01,01,NMEA unknown msg*58

$GPTXT,01,01,01,NMEA unknown msg*58

$GPTXT,01,01,01,NMEA unknown msg*58

$GPTXT,01,01,01,NMEA unknown msg*58

$GPTXT,01,01,01,NMEA unknown msg*58

$GPTXT,01,01,01,NMEA unknown msg*58

$GPRMC,122211.00,A,5327.66496,N,00957.84267,E,1.964,271.45,180917,,,A*68

$GPVTG,271.45,T,,M,1.964,N,3.637,K,A*33

$GPGGA,122211.00,5327.66496,N,00957.84267,E,1,10,0.87,11.7,M,45.2,M,,*69

$GPGSA,A,3,08,11,01,10,32,27,14,22,28,18,,,2.06,0.87,1.86*0C

$GPTXT,01,01,01,NMEA unknown msg*58

$GPTXT,01,01,01,NMEA unknown msg*58

$GPTXT,01,01,01,NMEA unknown msg*58

$GPTXT,01,01,00,txbuf alloc*7F

$GPTXT,01,01,01,NMEA unknown msg*58

$GPTXT,01,01,01,NMEA unknown msg*58

$GPTXT,01,01,01,NMEA unknown msg*58

$GPTXT,01,01,01,NMEA unknown msg*58

$GPTXT,01,01,01,NMEA unknown msg*58

$GPTXT,01,01,01,NMEA unknown msg*58

$GPTXT,01,01,01,NMEA unknown msg*58

$GPTXT,01,01,01,NMEA unknown msg*58

$GPTXT,01,01,01,NMEA unknown msg*58

$GPTXT,01,01,01,NMEA unknown msg*58

$GPTXT,01,01,01,NMEA unknown msg*58

$GPTXT,01,01,01,NMEA unknown msg*58

$GPTXT,01,01,01,NMEA unknown msg*58

$GPTXT,01,01,01,NMEA unknown msg*58

$GPTXT,01,01,01,NMEA unknown msg*58

$GPTXT,01,01,01,NMEA unknown msg*58

$GPTXT,01,01,01,NMEA unknown msg*58

$GPTXT,01,01,01,NMEA unknown msg*58

$GPTXT,01,01,01,NMEA unknown msg*58

$GPRMC,122212.00,A,5327.66502,N,00957.84175,E,2.104,277.59,180917,,,A*61

$GPVTG,277.59,T,,M,2.104,N,3.897,K,A*31

$GPGGA,122212.00,5327.66502,N,00957.84175,E,1,10,0.87,11.6,M,45.2,M,,*67

$GPTXT,01,01,01,NMEA unknown msg*58

$GPTXT,01,01,01,NMEA unknown msg*58

$GPTXT,01,01,01,NMEA unknown msg*58

$GPTXT,01,01,01,NMEA unknown msg*58

$GPTXT,01,01,01,NMEA unknown msg*58

$GPTXT,01,01,01,NMEA unknown msg*58

$GPTXT,01,01,01,NMEA unknown msg*58

$GPTXT,01,01,01,NMEA unknown msg*58

$GPTXT,01,01,01,NMEA unknown msg*58

$GPTXT,01,01,01,NMEA unknown msg*58

$GPTXT,01,01,01,NMEA unknown msg*58

$GPTXT,01,01,01,NMEA unknown msg*58

$GPTXT,01,01,01,NMEA unknown msg*58

$GPTXT,01,01,01,NMEA unknown msg*58

$GPTXT,01,01,01,NMEA unknown msg*58

$GPTXT,01,01,01,NMEA unknown msg*58

$GPTXT,01,01,01,NMEA unknown msg*58

$GPTXT,01,01,01,NMEA unknown msg*58

$GPTXT,01,01,01,NMEA unknown msg*58

$GPTXT,01,01,01,NMEA unknown msg*58

$GPTXT,01,01,01,NMEA unknown msg*58

$GPRMC,122213.00,A,5327.66517,N,00957.84089,E,2.215,278.60,180917,,,A*60

$GPVTG,278.60,T,,M,2.215,N,4.103,K,A*34

$GPTXT,01,01,01,NMEA unknown msg*58

$GPTXT,01,01,01,NMEA unknown msg*58

$GPTXT,01,01,01,NMEA unknown msg*58

$GPTXT,01,01,01,NMEA unknown msg*58

$GPTXT,01,01,01,NMEA unknown msg*58

$GPTXT,01,01,01,NMEA unknown msg*58

$GPTXT,01,01,01,NMEA unknown msg*58

$GPTXT,01,01,01,NMEA unknown msg*58

$GPTXT,01,01,01,NMEA unknown msg*58

$GPTXT,01,01,01,NMEA unknown msg*58

$GPTXT,01,01,01,NMEA unknown msg*58

$GPTXT,01,01,01,NMEA unknown msg*58

$GPTXT,01,01,01,NMEA unknown msg*58

$GPTXT,01,01,01,NMEA unknown msg*58

$GPTXT,01,01,01,NMEA unknown msg*58

$GPTXT,01,01,01,NMEA unknown msg*58

$GPTXT,01,01,01,NMEA unknown msg*58

$GPTXT,01,01,01,NMEA unknown msg*58

$GPTXT,01,01,01,NMEA unknown msg*58

$GPTXT,01,01,01,NMEA unknown msg*58

$GPTXT,01,01,01,NMEA unknown msg*58

$GPRMC,122214.00,A,5327.66534,N,00957.83994,E,2.321,281.81,180917,,,A*6B

$GPVTG,281.81,T,,M,2.321,N,4.298,K,A*3A

$GPGGA,122214.00,5327.66534,N,00957.83994,E,1,10,0.87,11.6,M,45.2,M,,*64

$GPGSA,A,3,08,11,01,10,32,27,14,22,28,18,,,2.06,0.87,1.86*0C

$GPGSV,4,1,13,01,41,277,34,03,05,224,,04,18,156,15,08,63,188,36*7F

$GPTXT,01,01,01,NMEA unknown msg*58

$GPTXT,01,01,01,NMEA unknown msg*58

$GPTXT,01,01,01,NMEA unknown msg*58

$GPTXT,01,01,01,NMEA unknown msg*58

$GPTXT,01,01,01,NMEA unknown msg*58

$GPTXT,01,01,01,NMEA unknown msg*58

$GPTXT,01,01,01,NMEA unknown msg*58

$GPTXT,01,01,01,NMEA unknown msg*58

$GPTXT,01,01,01,NMEA unknown msg*58

$GPTXT,01,01,01,NMEA unknown msg*58

$GPTXT,01,01,01,NMEA unknown msg*58

$GPTXT,01,01,01,NMEA unknown msg*58

$GPTXT,01,01,01,NMEA unknown msg*58

$GPTXT,01,01,01,NMEA unknown msg*58

$GPTXT,01,01,01,NMEA unknown msg*58

$GPTXT,01,01,01,NMEA unknown msg*58

$GPTXT,01,01,01,NMEA unknown msg*58

$GPTXT,01,01,01,NMEA unknown msg*58

$GPTXT,01,01,01,NMEA unknown msg*58

$GPTXT,01,01,01,NMEA unknown msg*58

$GPRMC,122215.00,A,5327.66551,N,00957.83902,E,1.968,280.96,180917,,,A*65

$GPVTG,280.96,T,,M,1.968,N,3.644,K,A*3B

$GPTXT,01,01,00,txbuf alloc*7F

$GPTXT,01,01,01,NMEA unknown msg*58

$GPTXT,01,01,01,NMEA unknown msg*58

$GPTXT,01,01,01,NMEA unknown msg*58

$GPTXT,01,01,01,NMEA unknown msg*58

$GPTXT,01,01,01,NMEA unknown msg*58

$GPTXT,01,01,01,NMEA unknown msg*58

$GPTXT,01,01,01,NMEA unknown msg*58

$GPTXT,01,01,01,NMEA unknown msg*58

$GPTXT,01,01,01,NMEA unknown msg*58

$GPTXT,01,01,01,NMEA unknown msg*58

$GPTXT,01,01,01,NMEA unknown msg*58

$GPTXT,01,01,01,NMEA unknown msg*58

$GPTXT,01,01,01,NMEA unknown msg*58

$GPTXT,01,01,01,NMEA unknown msg*58

$GPTXT,01,01,01,NMEA unknown msg*58

$GPTXT,01,01,01,NMEA unknown msg*58

$GPTXT,01,01,01,NMEA unknown msg*58

$GPTXT,01,01,01,NMEA unknown msg*58

$GPTXT,01,01,01,NMEA unknown msg*58

$GPRMC,122216.00,A,5327.66558,N,00957.83820,E,1.624,278.22,180917,,,A*61

$GPVTG,278.22,T,,M,1.624,N,3.007,K,A*35

$GPGGA,122216.00,5327.66558,N,00957.83820,E,1,10,0.87,12.0,M,45.2,M,,*67

$GPGSA,A,3,08,11,01,10,32,27,14,22,28,18,,,2.06,0.87,1.86*0C

$GPGSV,4,1,13,01,41,277,32,03,05,224,,04,18,156,11,08,63,188,36*7D

$GPTXT,01,01,01,NMEA unknown msg*58

$GPTXT,01,01,01,NMEA unknown msg*58

$GPTXT,01,01,01,NMEA unknown msg*58

$GPTXT,01,01,01,NMEA unknown msg*58

$GPTXT,01,01,01,NMEA unknown msg*58

$GPTXT,01,01,01,NMEA unknown msg*58

$GPTXT,01,01,01,NMEA unknown msg*58

$GPTXT,01,01,01,NMEA unknown msg*58

$GPTXT,01,01,01,NMEA unknown msg*58

$GPTXT,01,01,01,NMEA unknown msg*58

$GPTXT,01,01,01,NMEA unknown msg*58

$GPTXT,01,01,01,NMEA unknown msg*58

$GPTXT,01,01,01,NMEA unknown msg*58

$GPTXT,01,01,01,NMEA unknown msg*58

$GPTXT,01,01,01,NMEA unknown msg*58

$GPTXT,01,01,01,NMEA unknown msg*58

$GPTXT,01,01,01,NMEA unknown msg*58

$GPTXT,01,01,01,NMEA unknown msg*58

$GPTXT,01,01,01,NMEA unknown msg*58

$GPTXT,01,01,01,NMEA unknown msg*58

$GPTXT,01,01,01,NMEA unknown msg*58

$GPRMC,122217.00,A,5327.66563,N,00957.83734,E,2.176,273.05,180917,,,A*6F

$GPVTG,273.05,T,,M,2.176,N,4.030,K,A*3B

$GPGGA,122217.00,5327.66563,N,00957.83734,E,1,10,0.87,11.7,M,45.2,M,,*60

$GPGSA,A,3,08,11,01,10,32,27,14,22,28,18,,,2.06,0.87,1.86*0C

$GPTXT,01,01,01,NMEA unknown msg*58

$GPTXT,01,01,01,NMEA unknown msg*58

$GPTXT,01,01,01,NMEA unknown msg*58

$GPTXT,01,01,01,NMEA unknown msg*58

$GPTXT,01,01,01,NMEA unknown msg*58

$GPTXT,01,01,01,NMEA unknown msg*58

$GPTXT,01,01,01,NMEA unknown msg*58

$GPTXT,01,01,01,NMEA unknown msg*58

$GPTXT,01,01,01,NMEA unknown msg*58

$GPTXT,01,01,01,NMEA unknown msg*58

$GPTXT,01,01,01,NMEA unknown msg*58

$GPTXT,01,01,01,NMEA unknown msg*58

$GPTXT,01,01,01,NMEA unknown msg*58

$GPTXT,01,01,01,NMEA unknown msg*58

$GPTXT,01,01,01,NMEA unknown msg*58

$GPTXT,01,01,01,NMEA unknown msg*58

$GPTXT,01,01,01,NMEA unknown msg*58

$GPTXT,01,01,01,NMEA unknown msg*58

$GPTXT,01,01,01,NMEA unknown msg*58

$GPTXT,01,01,01,NMEA unknown msg*58

$GPRMC,122218.00,A,5327.66561,N,00957.83631,E,2.336,269.00,180917,,,A*6E

$GPVTG,269.00,T,,M,2.336,N,4.326,K,A*37

$GPTXT,01,01,01,NMEA unknown msg*58

$GPTXT,01,01,01,NMEA unknown msg*58

$GPTXT,01,01,01,NMEA unknown msg*58

$GPTXT,01,01,01,NMEA unknown msg*58

$GPTXT,01,01,01,NMEA unknown msg*58

$GPTXT,01,01,01,NMEA unknown msg*58

$GPTXT,01,01,01,NMEA unknown msg*58

$GPTXT,01,01,01,NMEA unknown msg*58

$GPTXT,01,01,01,NMEA unknown msg*58

$GPTXT,01,01,01,NMEA unknown msg*58

$GPTXT,01,01,01,NMEA unknown msg*58

$GPTXT,01,01,01,NMEA unknown msg*58

$GPTXT,01,01,01,NMEA unknown msg*58

$GPTXT,01,01,01,NMEA unknown msg*58

$GPTXT,01,01,01,NMEA unknown msg*58

$GPTXT,01,01,01,NMEA unknown msg*58

$GPTXT,01,01,01,NMEA unknown msg*58

$GPTXT,01,01,01,NMEA unknown msg*58

$GPRMC,122219.00,A,5327.66553,N,00957.83525,E,2.145,271.02,180917,,,A*65

$GPVTG,271.02,T,,M,2.145,N,3.972,K,A*36

$GPGGA,122219.00,5327.66553,N,00957.83525,E,1,10,0.87,11.0,M,45.2,M,,*68

$GPGSA,A,3,08,11,01,10,32,27,14,22,28,18,,,2.06,0.87,1.86*0C

$GPGSV,4,1,13,01,41,277,33,03,06,224,,04,18,156,08,08,63,188,35*74

$GPGSV,4,2,13,10,40,060,33,11,55,282,33,14,28,129,19,18,12,056,26*76

$GPTXT,01,01,01,NMEA unknown msg*58

$GPTXT,01,01,01,NMEA unknown msg*58

$GPTXT,01,01,01,NMEA unknown msg*58

$GPTXT,01,01,00,txbuf alloc*7F

$GPTXT,01,01,01,NMEA unknown msg*58

$GPTXT,01,01,01,NMEA unknown msg*58

$GPTXT,01,01,01,NMEA unknown msg*58

$GPTXT,01,01,01,NMEA unknown msg*58

$GPTXT,01,01,01,NMEA unknown msg*58

$GPTXT,01,01,01,NMEA unknown msg*58

$GPTXT,01,01,01,NMEA unknown msg*58

$GPTXT,01,01,01,NMEA unknown msg*58

$GPTXT,01,01,01,NMEA unknown msg*58

$GPTXT,01,01,01,NMEA unknown msg*58

$GPTXT,01,01,01,NMEA unknown msg*58

$GPTXT,01,01,01,NMEA unknown msg*58

$GPTXT,01,01,01,NMEA unknown msg*58

$GPTXT,01,01,01,NMEA unknown msg*58

$GPTXT,01,01,01,NMEA unknown msg*58

$GPRMC,122220.00,A,5327.66550,N,00957.83433,E,1.939,270.65,180917,,,A*6A

$GPVTG,270.65,T,,M,1.939,N,3.590,K,A*36

$GPGGA,122220.00,5327.66550,N,00957.83433,E,1,10,0.87,10.5,M,45.2,M,,*63

$GPGSA,A,3,08,11,01,10,32,27,14,22,28,18,,,2.06,0.87,1.86*0C

$GPGSV,4,1,13,01,41,277,31,03,06,224,,04,17,156,08,08,63,188,34*78

$GPTXT,01,01,01,NMEA unknown msg*58

$GPTXT,01,01,01,NMEA unknown msg*58

$GPTXT,01,01,01,NMEA unknown msg*58

$GPTXT,01,01,01,NMEA unknown msg*58

$GPTXT,01,01,01,NMEA unknown msg*58

$GPTXT,01,01,01,NMEA unknown msg*58

$GPTXT,01,01,01,NMEA unknown msg*58

$GPTXT,01,01,01,NMEA unknown msg*58

$GPTXT,01,01,01,NMEA unknown msg*58

$GPTXT,01,01,01,NMEA unknown msg*58

$GPTXT,01,01,01,NMEA unknown msg*58

$GPTXT,01,01,01,NMEA unknown msg*58

$GPTXT,01,01,01,NMEA unknown msg*58

$GPTXT,01,01,01,NMEA unknown msg*58

$GPTXT,01,01,01,NMEA unknown msg*58

$GPTXT,01,01,01,NMEA unknown msg*58

$GPRMC,122221.00,A,5327.66555,N,00957.83339,E,2.228,270.96,180917,,,A*67

$GPVTG,270.96,T,,M,2.228,N,4.126,K,A*3C

$GPGGA,122221.00,5327.66555,N,00957.83339,E,1,10,0.87,10.5,M,45.2,M,,*6A

$GPGSA,A,3,08,11,01,10,32,27,14,22,28,18,,,2.06,0.87,1.86*0C

$GPGSV,4,1,13,01,41,277,33,03,06,224,,04,17,156,10,08,63,188,35*72

$GPGSV,4,2,13,10,40,060,34,11,55,282,29,14,28,129,19,18,12,056,23*7F

$GPGSV,4,3,13,22,28,222,25,24,04,033,,27,31,156,22,28,27,310,29*72

$GPTXT,01,01,01,NMEA unknown msg*58

$GPTXT,01,01,01,NMEA unknown msg*58

$GPTXT,01,01,01,NMEA unknown msg*58

$GPTXT,01,01,01,NMEA unknown msg*58

$GPTXT,01,01,01,NMEA unknown msg*58

$GPTXT,01,01,01,NMEA unknown msg*58

$GPTXT,01,01,01,NMEA unknown msg*58

$GPTXT,01,01,01,NMEA unknown msg*58

$GPTXT,01,01,01,NMEA unknown msg*58

$GPTXT,01,01,01,NMEA unknown msg*58

$GPTXT,01,01,01,NMEA unknown msg*58

$GPTXT,01,01,01,NMEA unknown msg*58

$GPTXT,01,01,01,NMEA unknown msg*58

$GPTXT,01,01,01,NMEA unknown msg*58

$GPTXT,01,01,01,NMEA unknown msg*58

$GPTXT,01,01,01,NMEA unknown msg*58

$GPTXT,01,01,01,NMEA unknown msg*58

$GPTXT,01,01,01,NMEA unknown msg*58

$GPTXT,01,01,01,NMEA unknown msg*58

$GPTXT,01,01,01,NMEA unknown msg*58

$GPRMC,122222.00,A,5327.66556,N,00957.83249,E,1.918,272.40,180917,,,A*63

$GPVTG,272.40,T,,M,1.918,N,3.551,K,A*3D

$GPGGA,122222.00,5327.66556,N,00957.83249,E,1,10,0.87,10.4,M,45.2,M,,*6D

$GPGSA,A,3,08,11,01,10,32,27,14,22,28,18,,,2.06,0.87,1.86*0C

$GPGSV,4,1,13,01,41,277,34,03,06,224,,04,17,156,11,08,63,188,34*75

$GPTXT,01,01,01,NMEA unknown msg*58

$GPTXT,01,01,01,NMEA unknown msg*58

$GPTXT,01,01,01,NMEA unknown msg*58

$GPTXT,01,01,01,NMEA unknown msg*58

$GPTXT,01,01,01,NMEA unknown msg*58

$GPTXT,01,01,01,NMEA unknown msg*58

$GPTXT,01,01,01,NMEA unknown msg*58

$GPTXT,01,01,01,NMEA unknown msg*58

$GPTXT,01,01,01,NMEA unknown msg*58

$GPTXT,01,01,01,NMEA unknown msg*58

$GPTXT,01,01,01,NMEA unknown msg*58

$GPTXT,01,01,01,NMEA unknown msg*58

$GPTXT,01,01,01,NMEA unknown msg*58

$GPTXT,01,01,01,NMEA unknown msg*58

$GPTXT,01,01,01,NMEA unknown msg*58

$GPTXT,01,01,01,NMEA unknown msg*58

$GPTXT,01,01,01,NMEA unknown msg*58

$GPRMC,122223.00,A,5327.66551,N,00957.83143,E,2.395,267.94,180917,,,A*6D

$GPVTG,267.94,T,,M,2.395,N,4.436,K,A*3B

$GPGGA,122223.00,5327.66551,N,00957.83143,E,1,10,0.87,10.3,M,45.2,M,,*65

$GPTXT,01,01,01,NMEA unknown msg*58

$GPTXT,01,01,01,NMEA unknown msg*58

$GPTXT,01,01,00,txbuf alloc*7F

$GPTXT,01,01,01,NMEA unknown msg*58

$GPTXT,01,01,01,NMEA unknown msg*58

$GPTXT,01,01,01,NMEA unknown msg*58

$GPTXT,01,01,01,NMEA unknown msg*58

$GPTXT,01,01,01,NMEA unknown msg*58

$GPTXT,01,01,01,NMEA unknown msg*58

$GPTXT,01,01,01,NMEA unknown msg*58

$GPTXT,01,01,01,NMEA unknown msg*58

$GPTXT,01,01,01,NMEA unknown msg*58

$GPTXT,01,01,01,NMEA unknown msg*58

$GPTXT,01,01,01,NMEA unknown msg*58

$GPTXT,01,01,01,NMEA unknown msg*58

$GPTXT,01,01,01,NMEA unknown msg*58

$GPTXT,01,01,01,NMEA unknown msg*58

$GPTXT,01,01,01,NMEA unknown msg*58

$GPRMC,122224.00,A,5327.66543,N,00957.83038,E,2.286,266.35,180917,,,A*6D

$GPVTG,266.35,T,,M,2.286,N,4.235,K,A*37

$GPGGA,122224.00,5327.66543,N,00957.83038,E,1,10,0.87,10.3,M,45.2,M,,*6C

$GPGSA,A,3,08,11,01,10,32,27,14,22,28,18,,,2.06,0.87,1.86*0C

$GPGSV,4,1,13,01,41,277,32,03,06,224,,04,17,156,11,08,63,188,35*72

$GPTXT,01,01,01,NMEA unknown msg*58

$GPTXT,01,01,01,NMEA unknown msg*58

$GPTXT,01,01,01,NMEA unknown msg*58

$GPTXT,01,01,01,NMEA unknown msg*58

$GPTXT,01,01,01,NMEA unknown msg*58

$GPTXT,01,01,01,NMEA unknown msg*58

$GPTXT,01,01,01,NMEA unknown msg*58

$GPTXT,01,01,01,NMEA unknown msg*58

$GPTXT,01,01,01,NMEA unknown msg*58

$GPTXT,01,01,01,NMEA unknown msg*58

$GPTXT,01,01,01,NMEA unknown msg*58

$GPTXT,01,01,01,NMEA unknown msg*58

$GPTXT,01,01,01,NMEA unknown msg*58

$GPTXT,01,01,01,NMEA unknown msg*58

$GPTXT,01,01,01,NMEA unknown msg*58

$GPTXT,01,01,01,NMEA unknown msg*58

$GPTXT,01,01,01,NMEA unknown msg*58

$GPTXT,01,01,01,NMEA unknown msg*58

$GPRMC,122225.00,A,5327.66544,N,00957.82936,E,2.230,271.55,180917,,,A*60

$GPTXT,01,01,01,NMEA unknown msg*58

$GPTXT,01,01,01,NMEA unknown msg*58

$GPTXT,01,01,01,NMEA unknown msg*58

$GPTXT,01,01,01,NMEA unknown msg*58

$GPTXT,01,01,01,NMEA unknown msg*58

$GPTXT,01,01,01,NMEA unknown msg*58

$GPTXT,01,01,01,NMEA unknown msg*58

$GPTXT,01,01,01,NMEA unknown msg*58

$GPTXT,01,01,01,NMEA unknown msg*58

$GPTXT,01,01,01,NMEA unknown msg*58

$GPTXT,01,01,01,NMEA unknown msg*58

$GPTXT,01,01,01,NMEA unknown msg*58

$GPTXT,01,01,01,NMEA unknown msg*58

$GPTXT,01,01,01,NMEA unknown msg*58

$GPTXT,01,01,01,NMEA unknown msg*58

$GPTXT,01,01,01,NMEA unknown msg*58

$GPTXT,01,01,01,NMEA unknown msg*58

$GPTXT,01,01,01,NMEA unknown msg*58

$GPTXT,01,01,01,NMEA unknown msg*58

$GPTXT,01,01,01,NMEA unknown msg*58

$GPRMC,122226.00,A,5327.66552,N,00957.82833,E,2.238,278.42,180917,,,A*67

$GPVTG,278.42,T,,M,2.238,N,4.145,K,A*39

$GPGGA,122226.00,5327.66552,N,00957.82833,E,1,10,0.87,10.0,M,45.2,M,,*6F

$GPGSA,A,3,08,11,01,10,32,27,14,22,28,18,,,2.06,0.87,1.86*0C

$GPTXT,01,01,01,NMEA unknown msg*58

$GPTXT,01,01,01,NMEA unknown msg*58

$GPTXT,01,01,01,NMEA unknown msg*58

$GPTXT,01,01,01,NMEA unknown msg*58

$GPTXT,01,01,01,NMEA unknown msg*58

$GPTXT,01,01,01,NMEA unknown msg*58

$GPTXT,01,01,01,NMEA unknown msg*58

$GPTXT,01,01,01,NMEA unknown msg*58

$GPTXT,01,01,01,NMEA unknown msg*58

$GPTXT,01,01,01,NMEA unknown msg*58

$GPTXT,01,01,01,NMEA unknown msg*58

$GPTXT,01,01,01,NMEA unknown msg*58

$GPTXT,01,01,01,NMEA unknown msg*58

$GPTXT,01,01,01,NMEA unknown msg*58

$GPTXT,01,01,01,NMEA unknown msg*58

$GPTXT,01,01,01,NMEA unknown msg*58

$GPTXT,01,01,01,NMEA unknown msg*58

$GPTXT,01,01,01,NMEA unknown msg*58

$GPRMC,122227.00,A,5327.66550,N,00957.82729,E,2.318,274.06,180917,,,A*6F

$GPVTG,274.06,T,,M,2.318,N,4.293,K,A*3E

$GPGGA,122227.00,5327.66550,N,00957.82729,E,1,10,0.87,9.7,M,45.2,M,,*57

$GPGSA,A,3,08,11,01,10,32,27,14,22,28,18,,,2.06,0.87,1.86*0C

$GPGSV,4,1,13,01,41,277,31,03,06,224,,04,17,156,12,08,63,188,35*72

$GPTXT,01,01,01,NMEA unknown msg*58

$GPTXT,01,01,01,NMEA unknown msg*58

$GPTXT,01,01,00,txbuf alloc*7F

$GPTXT,01,01,01,NMEA unknown msg*58

$GPTXT,01,01,01,NMEA unknown msg*58

$GPTXT,01,01,01,NMEA unknown msg*58

$GPTXT,01,01,01,NMEA unknown msg*58

$GPTXT,01,01,01,NMEA unknown msg*58

$GPTXT,01,01,01,NMEA unknown msg*58

$GPTXT,01,01,01,NMEA unknown msg*58

$GPTXT,01,01,01,NMEA unknown msg*58

$GPTXT,01,01,01,NMEA unknown msg*58

$GPTXT,01,01,01,NMEA unknown msg*58

$GPTXT,01,01,01,NMEA unknown msg*58

$GPTXT,01,01,01,NMEA unknown msg*58

$GPTXT,01,01,01,NMEA unknown msg*58

$GPTXT,01,01,01,NMEA unknown msg*58

$GPTXT,01,01,01,NMEA unknown msg*58

$GPTXT,01,01,01,NMEA unknown msg*58

$GPTXT,01,01,01,NMEA unknown msg*58

$GPRMC,122228.00,A,5327.66540,N,00957.82635,E,2.005,266.64,180917,,,A*65

$GPVTG,266.64,T,,M,2.005,N,3.713,K,A*3C

$GPGGA,122228.00,5327.66540,N,00957.82635,E,1,10,0.87,9.6,M,45.2,M,,*54

$GPTXT,01,01,01,NMEA unknown msg*58

$GPTXT,01,01,01,NMEA unknown msg*58

$GPTXT,01,01,01,NMEA unknown msg*58

$GPTXT,01,01,01,NMEA unknown msg*58

$GPTXT,01,01,01,NMEA unknown msg*58

$GPTXT,01,01,01,NMEA unknown msg*58

$GPTXT,01,01,01,NMEA unknown msg*58

$GPTXT,01,01,01,NMEA unknown msg*58

$GPTXT,01,01,01,NMEA unknown msg*58

$GPTXT,01,01,01,NMEA unknown msg*58

$GPTXT,01,01,01,NMEA unknown msg*58

$GPTXT,01,01,01,NMEA unknown msg*58

$GPTXT,01,01,01,NMEA unknown msg*58

$GPTXT,01,01,01,NMEA unknown msg*58

$GPTXT,01,01,01,NMEA unknown msg*58

$GPTXT,01,01,01,NMEA unknown msg*58

$GPTXT,01,01,01,NMEA unknown msg*58

$GPTXT,01,01,01,NMEA unknown msg*58

$GPTXT,01,01,01,NMEA unknown msg*58

$GPTXT,01,01,01,NMEA unknown msg*58

$GPTXT,01,01,01,NMEA unknown msg*58

$GPRMC,122229.00,A,5327.66527,N,00957.82533,E,2.259,264.62,180917,,,A*6F

$GPVTG,264.62,T,,M,2.259,N,4.183,K,A*3B

$GPGGA,122229.00,5327.66527,N,00957.82533,E,1,10,0.87,9.5,M,45.2,M,,*52

$GPTXT,01,01,01,NMEA unknown msg*58

$GPTXT,01,01,01,NMEA unknown msg*58

$GPTXT,01,01,01,NMEA unknown msg*58

$GPTXT,01,01,01,NMEA unknown msg*58

$GPTXT,01,01,01,NMEA unknown msg*58

$GPTXT,01,01,01,NMEA unknown msg*58

$GPTXT,01,01,01,NMEA unknown msg*58

$GPTXT,01,01,01,NMEA unknown msg*58

$GPTXT,01,01,01,NMEA unknown msg*58

$GPTXT,01,01,01,NMEA unknown msg*58

$GPTXT,01,01,01,NMEA unknown msg*58

$GPTXT,01,01,01,NMEA unknown msg*58

$GPTXT,01,01,01,NMEA unknown msg*58

$GPTXT,01,01,01,NMEA unknown msg*58

$GPTXT,01,01,01,NMEA unknown msg*58

$GPTXT,01,01,01,NMEA unknown msg*58

$GPTXT,01,01,01,NMEA unknown msg*58

$GPTXT,01,01,01,NMEA unknown msg*58

$GPTXT,01,01,01,NMEA unknown msg*58

$GPRMC,122230.00,A,5327.66534,N,00957.82438,E,2.038,273.32,180917,,,A*69

$GPVTG,273.32,T,,M,2.038,N,3.775,K,A*35

$GPGGA,122230.00,5327.66534,N,00957.82438,E,1,10,0.87,9.8,M,45.2,M,,*5F

$GPGSA,A,3,08,11,01,10,32,27,14,22,28,18,,,2.06,0.87,1.86*0C

$GPTXT,01,01,01,NMEA unknown msg*58

$GPTXT,01,01,01,NMEA unknown msg*58

$GPTXT,01,01,01,NMEA unknown msg*58

$GPTXT,01,01,01,NMEA unknown msg*58

$GPTXT,01,01,01,NMEA unknown msg*58

$GPTXT,01,01,01,NMEA unknown msg*58

$GPTXT,01,01,01,NMEA unknown msg*58

$GPTXT,01,01,01,NMEA unknown msg*58

$GPTXT,01,01,01,NMEA unknown msg*58

$GPTXT,01,01,01,NMEA unknown msg*58

$GPTXT,01,01,01,NMEA unknown msg*58

$GPTXT,01,01,01,NMEA unknown msg*58

$GPTXT,01,01,01,NMEA unknown msg*58

$GPTXT,01,01,01,NMEA unknown msg*58

$GPTXT,01,01,01,NMEA unknown msg*58

$GPTXT,01,01,01,NMEA unknown msg*58

$GPTXT,01,01,01,NMEA unknown msg*58

$GPTXT,01,01,01,NMEA unknown msg*58

$GPTXT,01,01,01,NMEA unknown msg*58

$GPTXT,01,01,01,NMEA unknown msg*58

$GPRMC,122231.00,A,5327.66544,N,00957.82346,E,2.084,278.80,180917,,,A*64

$GPTXT,01,01,01,NMEA unknown msg*58

$GPTXT,01,01,01,NMEA unknown msg*58

$GPTXT,01,01,01,NMEA unknown msg*58

$GPTXT,01,01,00,txbuf alloc*7F

$GPTXT,01,01,01,NMEA unknown msg*58

$GPTXT,01,01,01,NMEA unknown msg*58

$GPTXT,01,01,01,NMEA unknown msg*58

$GPTXT,01,01,01,NMEA unknown msg*58

$GPTXT,01,01,01,NMEA unknown msg*58

$GPTXT,01,01,01,NMEA unknown msg*58

$GPTXT,01,01,01,NMEA unknown msg*58

$GPTXT,01,01,01,NMEA unknown msg*58

$GPTXT,01,01,01,NMEA unknown msg*58

$GPTXT,01,01,01,NMEA unknown msg*58

$GPTXT,01,01,01,NMEA unknown msg*58

$GPTXT,01,01,01,NMEA unknown msg*58

$GPTXT,01,01,01,NMEA unknown msg*58

$GPTXT,01,01,01,NMEA unknown msg*58

$GPTXT,01,01,01,NMEA unknown msg*58

$GPTXT,01,01,01,NMEA unknown msg*58

$GPTXT,01,01,01,NMEA unknown msg*58

$GPTXT,01,01,01,NMEA unknown msg*58

$GPRMC,122232.00,A,5327.66550,N,00957.82253,E,2.038,277.71,180917,,,A*61

$GPVTG,277.71,T,,M,2.038,N,3.775,K,A*36

$GPGGA,122232.00,5327.66550,N,00957.82253,E,1,10,0.87,9.8,M,45.2,M,,*54

$GPTXT,01,01,01,NMEA unknown msg*58

$GPTXT,01,01,01,NMEA unknown msg*58

$GPTXT,01,01,01,NMEA unknown msg*58

$GPTXT,01,01,01,NMEA unknown msg*58

$GPTXT,01,01,01,NMEA unknown msg*58

$GPTXT,01,01,01,NMEA unknown msg*58

$GPTXT,01,01,01,NMEA unknown msg*58

$GPTXT,01,01,01,NMEA unknown msg*58

$GPTXT,01,01,01,NMEA unknown msg*58

$GPTXT,01,01,01,NMEA unknown msg*58

$GPTXT,01,01,01,NMEA unknown msg*58

$GPTXT,01,01,01,NMEA unknown msg*58

$GPTXT,01,01,01,NMEA unknown msg*58

$GPTXT,01,01,01,NMEA unknown msg*58

$GPTXT,01,01,01,NMEA unknown msg*58

$GPTXT,01,01,01,NMEA unknown msg*58

$GPTXT,01,01,01,NMEA unknown msg*58

$GPTXT,01,01,01,NMEA unknown msg*58

$GPTXT,01,01,01,NMEA unknown msg*58

$GPTXT,01,01,01,NMEA unknown msg*58

$GPTXT,01,01,01,NMEA unknown msg*58

$GPRMC,122233.00,A,5327.66549,N,00957.82150,E,2.234,271.73,180917,,,A*62

$GPVTG,271.73,T,,M,2.234,N,4.138,K,A*34

$GPGGA,122233.00,5327.66549,N,00957.82150,E,1,10,0.87,10.0,M,45.2,M,,*6D

$GPTXT,01,01,01,NMEA unknown msg*58

$GPTXT,01,01,01,NMEA unknown msg*58

$GPTXT,01,01,01,NMEA unknown msg*58

$GPTXT,01,01,01,NMEA unknown msg*58

$GPTXT,01,01,01,NMEA unknown msg*58

$GPTXT,01,01,01,NMEA unknown msg*58

$GPTXT,01,01,01,NMEA unknown msg*58

$GPTXT,01,01,01,NMEA unknown msg*58

$GPTXT,01,01,01,NMEA unknown msg*58

$GPTXT,01,01,01,NMEA unknown msg*58

$GPTXT,01,01,01,NMEA unknown msg*58

$GPTXT,01,01,01,NMEA unknown msg*58

$GPTXT,01,01,01,NMEA unknown msg*58

$GPTXT,01,01,01,NMEA unknown msg*58

$GPTXT,01,01,01,NMEA unknown msg*58

$GPTXT,01,01,01,NMEA unknown msg*58

$GPTXT,01,01,01,NMEA unknown msg*58

$GPTXT,01,01,01,NMEA unknown msg*58

$GPTXT,01,01,01,NMEA unknown msg*58

$GPTXT,01,01,01,NMEA unknown msg*58

$GPTXT,01,01,01,NMEA unknown msg*58

$GPRMC,122234.00,A,5327.66549,N,00957.82045,E,2.303,271.73,180917,,,A*65

$GPVTG,271.73,T,,M,2.303,N,4.264,K,A*3B

$GPGGA,122234.00,5327.66549,N,00957.82045,E,1,10,0.87,10.0,M,45.2,M,,*6F

$GPTXT,01,01,01,NMEA unknown msg*58

$GPTXT,01,01,01,NMEA unknown msg*58

$GPTXT,01,01,01,NMEA unknown msg*58

$GPTXT,01,01,01,NMEA unknown msg*58

$GPTXT,01,01,01,NMEA unknown msg*58

$GPTXT,01,01,01,NMEA unknown msg*58

$GPTXT,01,01,01,NMEA unknown msg*58

$GPTXT,01,01,01,NMEA unknown msg*58

$GPTXT,01,01,01,NMEA unknown msg*58

$GPTXT,01,01,01,NMEA unknown msg*58

$GPTXT,01,01,01,NMEA unknown msg*58

$GPTXT,01,01,01,NMEA unknown msg*58

$GPTXT,01,01,01,NMEA unknown msg*58

$GPTXT,01,01,01,NMEA unknown msg*58

$GPTXT,01,01,01,NMEA unknown msg*58

$GPTXT,01,01,01,NMEA unknown msg*58

$GPTXT,01,01,01,NMEA unknown msg*58

$GPTXT,01,01,01,NMEA unknown msg*58

$GPTXT,01,01,01,NMEA unknown msg*58

$GPTXT,01,01,01,NMEA unknown msg*58

$GPRMC,122235.00,A,5327.66547,N,00957.81943,E,2.121,272.39,180917,,,A*69

$GPVTG,272.39,T,,M,2.121,N,3.928,K,A*30

$GPGGA,122235.00,5327.66547,N,00957.81943,E,1,10,0.87,9.7,M,45.2,M,,*53

$GPGSA,A,3,08,11,01,10,32,27,14,22,28,18,,,2.06,0.87,1.86*0C

$GPGSV,4,1,13,01,41,277,33,03,06,224,,04,17,156,11,08,63,188,35*73

$GPTXT,01,01,01,NMEA unknown msg*58

$GPTXT,01,01,00,txbuf alloc*7F

$GPTXT,01,01,01,NMEA unknown msg*58

$GPTXT,01,01,01,NMEA unknown msg*58

$GPTXT,01,01,01,NMEA unknown msg*58

$GPTXT,01,01,01,NMEA unknown msg*58

$GPTXT,01,01,01,NMEA unknown msg*58

$GPTXT,01,01,01,NMEA unknown msg*58

$GPTXT,01,01,01,NMEA unknown msg*58

$GPTXT,01,01,01,NMEA unknown msg*58

$GPTXT,01,01,01,NMEA unknown msg*58

$GPTXT,01,01,01,NMEA unknown msg*58

$GPTXT,01,01,01,NMEA unknown msg*58

$GPTXT,01,01,01,NMEA unknown msg*58

$GPTXT,01,01,01,NMEA unknown msg*58

$GPTXT,01,01,01,NMEA unknown msg*58

$GPTXT,01,01,01,NMEA unknown msg*58

$GPTXT,01,01,01,NMEA unknown msg*58

$GPTXT,01,01,01,NMEA unknown msg*58

$GPRMC,122236.00,A,5327.66548,N,00957.81841,E,2.156,270.38,180917,,,A*65

$GPVTG,270.38,T,,M,2.156,N,3.993,K,A*33

$GPGGA,122236.00,5327.66548,N,00957.81841,E,1,10,0.87,9.8,M,45.2,M,,*53

$GPGSA,A,3,08,11,01,10,32,27,14,22,28,18,,,2.06,0.87,1.86*0C

$GPGSV,4,1,13,01,41,277,33,03,06,224,,04,17,156,10,08,63,188,36*71

$GPGSV,4,2,13,10,40,060,33,11,56,282,32,14,28,129,18,18,12,056,15*75

$GPTXT,01,01,01,NMEA unknown msg*58

$GPTXT,01,01,01,NMEA unknown msg*58

$GPTXT,01,01,01,NMEA unknown msg*58

$GPTXT,01,01,01,NMEA unknown msg*58

$GPTXT,01,01,01,NMEA unknown msg*58

$GPTXT,01,01,01,NMEA unknown msg*58

$GPTXT,01,01,01,NMEA unknown msg*58

$GPTXT,01,01,01,NMEA unknown msg*58

$GPTXT,01,01,01,NMEA unknown msg*58

$GPTXT,01,01,01,NMEA unknown msg*58

$GPTXT,01,01,01,NMEA unknown msg*58

$GPTXT,01,01,01,NMEA unknown msg*58

$GPTXT,01,01,01,NMEA unknown msg*58

$GPTXT,01,01,01,NMEA unknown msg*58

$GPTXT,01,01,01,NMEA unknown msg*58

$GPTXT,01,01,01,NMEA unknown msg*58

$GPTXT,01,01,01,NMEA unknown msg*58

$GPTXT,01,01,01,NMEA unknown msg*58

$GPTXT,01,01,01,NMEA unknown msg*58

$GPTXT,01,01,01,NMEA unknown msg*58

$GPTXT,01,01,01,NMEA unknown msg*58

$GPTXT,01,01,01,NMEA unknown msg*58

$GPRMC,122237.00,A,5327.66547,N,00957.81735,E,2.317,271.06,180917,,,A*6C

$GPVTG,271.06,T,,M,2.317,N,4.292,K,A*35

$GPTXT,01,01,01,NMEA unknown msg*58

$GPTXT,01,01,01,NMEA unknown msg*58

$GPTXT,01,01,01,NMEA unknown msg*58

$GPTXT,01,01,01,NMEA unknown msg*58

$GPTXT,01,01,01,NMEA unknown msg*58

$GPTXT,01,01,01,NMEA unknown msg*58

$GPTXT,01,01,01,NMEA unknown msg*58

$GPTXT,01,01,01,NMEA unknown msg*58

$GPTXT,01,01,01,NMEA unknown msg*58

$GPTXT,01,01,01,NMEA unknown msg*58

$GPTXT,01,01,01,NMEA unknown msg*58

$GPTXT,01,01,01,NMEA unknown msg*58

$GPTXT,01,01,01,NMEA unknown msg*58

$GPTXT,01,01,01,NMEA unknown msg*58

$GPTXT,01,01,01,NMEA unknown msg*58

$GPTXT,01,01,01,NMEA unknown msg*58

$GPTXT,01,01,01,NMEA unknown msg*58

$GPTXT,01,01,01,NMEA unknown msg*58

$GPTXT,01,01,01,NMEA unknown msg*58

$GPTXT,01,01,01,NMEA unknown msg*58

$GPRMC,122238.00,A,5327.66550,N,00957.81630,E,2.194,272.39,180917,,,A*67

$GPVTG,272.39,T,,M,2.194,N,4.063,K,A*3F

$GPGGA,122238.00,5327.66550,N,00957.81630,E,1,10,0.87,9.8,M,45.2,M,,*5C

$GPGSA,A,3,08,11,01,10,32,27,14,22,28,18,,,2.06,0.87,1.86*0C

$GPTXT,01,01,01,NMEA unknown msg*58

$GPTXT,01,01,01,NMEA unknown msg*58

$GPTXT,01,01,01,NMEA unknown msg*58

$GPTXT,01,01,01,NMEA unknown msg*58

$GPTXT,01,01,01,NMEA unknown msg*58

$GPTXT,01,01,01,NMEA unknown msg*58

$GPTXT,01,01,01,NMEA unknown msg*58

$GPTXT,01,01,01,NMEA unknown msg*58

$GPTXT,01,01,01,NMEA unknown msg*58

$GPTXT,01,01,01,NMEA unknown msg*58

$GPTXT,01,01,01,NMEA unknown msg*58

$GPTXT,01,01,01,NMEA unknown msg*58

$GPTXT,01,01,01,NMEA unknown msg*58

$GPTXT,01,01,01,NMEA unknown msg*58

$GPTXT,01,01,01,NMEA unknown msg*58

$GPTXT,01,01,01,NMEA unknown msg*58

$GPTXT,01,01,01,NMEA unknown msg*58

$GPRMC,122239.00,A,5327.66550,N,00957.81521,E,2.294,270.42,180917,,,A*68

$GPVTG,270.42,T,,M,2.294,N,4.248,K,A*39

$GPGGA,122239.00,5327.66550,N,00957.81521,E,1,10,0.87,9.6,M,45.2,M,,*50

$GPTXT,01,01,01,NMEA unknown msg*58

$GPTXT,01,01,01,NMEA unknown msg*58

$GPTXT,01,01,01,NMEA unknown msg*58

$GPTXT,01,01,00,txbuf alloc*7F

$GPTXT,01,01,01,NMEA unknown msg*58

$GPTXT,01,01,01,NMEA unknown msg*58

$GPTXT,01,01,01,NMEA unknown msg*58

$GPTXT,01,01,01,NMEA unknown msg*58

$GPTXT,01,01,01,NMEA unknown msg*58

$GPTXT,01,01,01,NMEA unknown msg*58

$GPTXT,01,01,01,NMEA unknown msg*58

$GPTXT,01,01,01,NMEA unknown msg*58

$GPTXT,01,01,01,NMEA unknown msg*58

$GPTXT,01,01,01,NMEA unknown msg*58

$GPTXT,01,01,01,NMEA unknown msg*58

$GPTXT,01,01,01,NMEA unknown msg*58

$GPTXT,01,01,01,NMEA unknown msg*58

$GPTXT,01,01,01,NMEA unknown msg*58

$GPTXT,01,01,01,NMEA unknown msg*58

$GPRMC,122240.00,A,5327.66544,N,00957.81418,E,2.101,266.52,180917,,,A*61

$GPVTG,266.52,T,,M,2.101,N,3.890,K,A*38

$GPGGA,122240.00,5327.66544,N,00957.81418,E,1,10,0.87,9.8,M,45.2,M,,*5E

$GPGSA,A,3,08,11,01,10,32,27,14,22,28,18,,,2.06,0.87,1.86*0C

$GPGSV,4,1,13,01,41,277,33,03,06,224,,04,17,156,08,08,63,188,34*7A

$GPTXT,01,01,01,NMEA unknown msg*58

$GPTXT,01,01,01,NMEA unknown msg*58

$GPTXT,01,01,01,NMEA unknown msg*58

$GPTXT,01,01,01,NMEA unknown msg*58

$GPTXT,01,01,01,NMEA unknown msg*58

$GPTXT,01,01,01,NMEA unknown msg*58

$GPTXT,01,01,01,NMEA unknown msg*58

$GPTXT,01,01,01,NMEA unknown msg*58

$GPTXT,01,01,01,NMEA unknown msg*58

$GPTXT,01,01,01,NMEA unknown msg*58

$GPTXT,01,01,01,NMEA unknown msg*58

$GPTXT,01,01,01,NMEA unknown msg*58

$GPTXT,01,01,01,NMEA unknown msg*58

$GPTXT,01,01,01,NMEA unknown msg*58

$GPTXT,01,01,01,NMEA unknown msg*58

$GPTXT,01,01,01,NMEA unknown msg*58

$GPTXT,01,01,01,NMEA unknown msg*58

$GPTXT,01,01,01,NMEA unknown msg*58

$GPTXT,01,01,01,NMEA unknown msg*58

$GPTXT,01,01,01,NMEA unknown msg*58

$GPRMC,122241.00,A,5327.66534,N,00957.81309,E,2.365,263.11,180917,,,A*62

$GPVTG,263.11,T,,M,2.365,N,4.379,K,A*31

$GPGGA,122241.00,5327.66534,N,00957.81309,E,1,10,0.87,9.8,M,45.2,M,,*5F

$GPGSA,A,3,08,11,01,10,32,27,14,22,28,18,,,2.06,0.87,1.86*0C

$GPGSV,4,1,13,01,41,277,34,03,06,224,,04,17,156,08,08,63,188,34*7D

$GPTXT,01,01,01,NMEA unknown msg*58

$GPTXT,01,01,01,NMEA unknown msg*58

$GPTXT,01,01,01,NMEA unknown msg*58

$GPTXT,01,01,01,NMEA unknown msg*58

$GPTXT,01,01,01,NMEA unknown msg*58

$GPTXT,01,01,01,NMEA unknown msg*58

$GPTXT,01,01,01,NMEA unknown msg*58

$GPTXT,01,01,01,NMEA unknown msg*58

$GPTXT,01,01,01,NMEA unknown msg*58

$GPTXT,01,01,01,NMEA unknown msg*58

$GPTXT,01,01,01,NMEA unknown msg*58

$GPTXT,01,01,01,NMEA unknown msg*58

$GPTXT,01,01,01,NMEA unknown msg*58

$GPTXT,01,01,01,NMEA unknown msg*58

$GPTXT,01,01,01,NMEA unknown msg*58

$GPTXT,01,01,01,NMEA unknown msg*58

$GPTXT,01,01,01,NMEA unknown msg*58

$GPTXT,01,01,01,NMEA unknown msg*58

$GPTXT,01,01,01,NMEA unknown msg*58

$GPTXT,01,01,01,NMEA unknown msg*58

$GPRMC,122242.00,A,5327.66532,N,00957.81210,E,2.018,265.52,180917,,,A*66

$GPVTG,265.52,T,,M,2.018,N,3.737,K,A*30

$GPGGA,122242.00,5327.66532,N,00957.81210,E,1,10,0.87,10.0,M,45.2,M,,*63

$GPTXT,01,01,01,NMEA unknown msg*58

$GPTXT,01,01,01,NMEA unknown msg*58

$GPTXT,01,01,01,NMEA unknown msg*58

$GPTXT,01,01,01,NMEA unknown msg*58

$GPTXT,01,01,01,NMEA unknown msg*58

$GPTXT,01,01,01,NMEA unknown msg*58

$GPTXT,01,01,01,NMEA unknown msg*58

$GPTXT,01,01,01,NMEA unknown msg*58

$GPTXT,01,01,01,NMEA unknown msg*58

$GPTXT,01,01,01,NMEA unknown msg*58

$GPTXT,01,01,01,NMEA unknown msg*58

$GPTXT,01,01,01,NMEA unknown msg*58

$GPTXT,01,01,01,NMEA unknown msg*58

$GPTXT,01,01,01,NMEA unknown msg*58

$GPTXT,01,01,01,NMEA unknown msg*58

$GPTXT,01,01,01,NMEA unknown msg*58

$GPTXT,01,01,01,NMEA unknown msg*58

$GPTXT,01,01,01,NMEA unknown msg*58

$GPTXT,01,01,01,NMEA unknown msg*58

$GPRMC,122243.00,A,5327.66526,N,00957.81105,E,2.249,266.13,180917,,,A*65

$GPVTG,266.13,T,,M,2.249,N,4.166,K,A*35

$GPGGA,122243.00,5327.66526,N,00957.81105,E,1,09,0.96,9.7,M,45.2,M,,*57

$GPGSA,A,3,08,11,01,10,32,14,22,28,18,,,,2.13,0.96,1.91*0B

$GPTXT,01,01,01,NMEA unknown msg*58

$GPTXT,01,01,00,txbuf alloc*7F

$GPTXT,01,01,01,NMEA unknown msg*58

$GPTXT,01,01,01,NMEA unknown msg*58

$GPTXT,01,01,01,NMEA unknown msg*58

$GPTXT,01,01,01,NMEA unknown msg*58

$GPTXT,01,01,01,NMEA unknown msg*58

$GPTXT,01,01,01,NMEA unknown msg*58

$GPTXT,01,01,01,NMEA unknown msg*58

$GPTXT,01,01,01,NMEA unknown msg*58

$GPTXT,01,01,01,NMEA unknown msg*58

$GPTXT,01,01,01,NMEA unknown msg*58

$GPTXT,01,01,01,NMEA unknown msg*58

$GPTXT,01,01,01,NMEA unknown msg*58

$GPTXT,01,01,01,NMEA unknown msg*58

$GPTXT,01,01,01,NMEA unknown msg*58

$GPTXT,01,01,01,NMEA unknown msg*58

$GPTXT,01,01,01,NMEA unknown msg*58

$GPTXT,01,01,01,NMEA unknown msg*58

$GPTXT,01,01,01,NMEA unknown msg*58

$GPRMC,122244.00,A,5327.66526,N,00957.81012,E,1.941,265.55,180917,,,A*64

$GPVTG,265.55,T,,M,1.941,N,3.594,K,A*3A

$GPGGA,122244.00,5327.66526,N,00957.81012,E,1,09,0.96,9.8,M,45.2,M,,*58

$GPTXT,01,01,01,NMEA unknown msg*58

$GPTXT,01,01,01,NMEA unknown msg*58

$GPTXT,01,01,01,NMEA unknown msg*58

$GPTXT,01,01,01,NMEA unknown msg*58

$GPTXT,01,01,01,NMEA unknown msg*58

$GPTXT,01,01,01,NMEA unknown msg*58

$GPTXT,01,01,01,NMEA unknown msg*58

$GPTXT,01,01,01,NMEA unknown msg*58

$GPTXT,01,01,01,NMEA unknown msg*58

$GPTXT,01,01,01,NMEA unknown msg*58

$GPTXT,01,01,01,NMEA unknown msg*58

$GPTXT,01,01,01,NMEA unknown msg*58

$GPTXT,01,01,01,NMEA unknown msg*58

$GPTXT,01,01,01,NMEA unknown msg*58

$GPTXT,01,01,01,NMEA unknown msg*58

$GPTXT,01,01,01,NMEA unknown msg*58

$GPTXT,01,01,01,NMEA unknown msg*58

$GPTXT,01,01,01,NMEA unknown msg*58

$GPTXT,01,01,01,NMEA unknown msg*58

$GPTXT,01,01,01,NMEA unknown msg*58

$GPRMC,122245.00,A,5327.66523,N,00957.80912,E,2.141,263.20,180917,,,A*67

$GPVTG,263.20,T,,M,2.141,N,3.966,K,A*34

$GPGGA,122245.00,5327.66523,N,00957.80912,E,1,09,0.96,10.0,M,45.2,M,,*64

$GPTXT,01,01,01,NMEA unknown msg*58

$GPTXT,01,01,01,NMEA unknown msg*58

$GPTXT,01,01,01,NMEA unknown msg*58

$GPTXT,01,01,01,NMEA unknown msg*58

$GPTXT,01,01,01,NMEA unknown msg*58

$GPTXT,01,01,01,NMEA unknown msg*58

$GPTXT,01,01,01,NMEA unknown msg*58

$GPTXT,01,01,01,NMEA unknown msg*58


